__time,/riptide_1/imu_broadcaster/imu_status/angular_velocity/x,/riptide_1/imu_broadcaster/imu_status/angular_velocity/y,/riptide_1/imu_broadcaster/imu_status/angular_velocity/z,/riptide_1/imu_broadcaster/imu_status/angular_velocity_covariance[0;0],/riptide_1/imu_broadcaster/imu_status/angular_velocity_covariance[0;1],/riptide_1/imu_broadcaster/imu_status/angular_velocity_covariance[0;2],/riptide_1/imu_broadcaster/imu_status/angular_velocity_covariance[1;1],/riptide_1/imu_broadcaster/imu_status/angular_velocity_covariance[1;2],/riptide_1/imu_broadcaster/imu_status/header/stamp,/riptide_1/imu_broadcaster/imu_status/linear_acceleration/x,/riptide_1/imu_broadcaster/imu_status/linear_acceleration/y,/riptide_1/imu_broadcaster/imu_status/linear_acceleration/z,/riptide_1/imu_broadcaster/imu_status/orientation/pitch_deg,/riptide_1/imu_broadcaster/imu_status/orientation/roll_deg,/riptide_1/imu_broadcaster/imu_status/orientation/w,/riptide_1/imu_broadcaster/imu_status/orientation/x,/riptide_1/imu_broadcaster/imu_status/orientation/y,/riptide_1/imu_broadcaster/imu_status/orientation/yaw_deg,/riptide_1/imu_broadcaster/imu_status/orientation/z,/riptide_1/pressure_broadcaster/pressure_status/depth,/riptide_1/pressure_broadcaster/pressure_status/header/stamp,/riptide_1/pressure_broadcaster/pressure_status/pressure,/riptide_1/pressure_broadcaster/pressure_status/temperature,/riptide_1/tail_broadcaster/actuators_status/d_fin,/riptide_1/tail_broadcaster/actuators_status/header/stamp,/riptide_1/tail_broadcaster/actuators_status/p_fin,/riptide_1/tail_broadcaster/actuators_status/s_fin,/riptide_1/tail_broadcaster/actuators_status/thruster
1686731143.90124,,,,,,,,,,,,,,,,,,,,,,,,0,1686731143.90124,0,0,0
1686731143.90125,,,,,,,,,,,,,,,,,,,,,,,,,,,,
1686731143.90125,,,,,,,,,,,,,,,,,,,,,,,,,,,,
1686731143.90126,,,,,,,,,,,,,,,,,,,,0,1686731143.90126,101300,15,,,,,
1686731143.90127,0,0,0,0,0,0,0,0,1686731143.90127,0,0,9.8,0,0,1,0,0,0,0,,,,,,,,,
1686731143.94294,,,,,,,,,,,,,,,,,,,,,,,,0,1686731143.94294,0,0,0
1686731143.94295,,,,,,,,,,,,,,,,,,,,,,,,,,,,
1686731143.94296,,,,,,,,,,,,,,,,,,,,,,,,,,,,
1686731143.94296,,,,,,,,,,,,,,,,,,,,0,1686731143.94296,101300,15,,,,,
1686731143.94297,0,0,0,0,0,0,0,0,1686731143.94297,0,0,9.8,0,0,1,0,0,0,0,,,,,,,,,
1686731143.98156,,,,,,,,,,,,,,,,,,,,,,,,0,1686731143.98156,0,0,0
1686731143.98157,,,,,,,,,,,,,,,,,,,,,,,,,,,,
1686731143.98158,,,,,,,,,,,,,,,,,,,,,,,,,,,,
1686731143.98158,,,,,,,,,,,,,,,,,,,,0,1686731143.98158,101300,15,,,,,
1686731143.98159,0,0,0,0,0,0,0,0,1686731143.98159,0,0,9.8,0,0,1,0,0,0,0,,,,,,,,,
1686731144.02168,,,,,,,,,,,,,,,,,,,,,,,,0,1686731144.02168,0,0,0
1686731144.02169,,,,,,,,,,,,,,,,,,,,,,,,,,,,
1686731144.02169,,,,,,,,,,,,,,,,,,,,,,,,,,,,
1686731144.0217,,,,,,,,,,,,,,,,,,,,0,1686731144.0217,101300,15,,,,,
1686731144.0217,0,0,0,0,0,0,0,0,1686731144.0217,0,0,9.8,0,0,1,0,0,0,0,,,,,,,,,
1686731144.0615,,,,,,,,,,,,,,,,,,,,,,,,0,1686731144.0615,0,0,0
1686731144.06151,,,,,,,,,,,,,,,,,,,,,,,,,,,,
1686731144.06152,,,,,,,,,,,,,,,,,,,,,,,,,,,,
1686731144.06153,,,,,,,,,,,,,,,,,,,,0,1686731144.06153,101300,15,,,,,
1686731144.06154,0,0,0,0,0,0,0,0,1686731144.06154,0,0,9.8,0,0,1,0,0,0,0,,,,,,,,,
1686731144.10149,,,,,,,,,,,,,,,,,,,,,,,,0,1686731144.10149,0,0,0
1686731144.1015,,,,,,,,,,,,,,,,,,,,,,,,,,,,
1686731144.10151,,,,,,,,,,,,,,,,,,,,,,,,,,,,
1686731144.10151,,,,,,,,,,,,,,,,,,,,0,1686731144.10151,101300,15,,,,,
1686731144.10152,0,0,0,0,0,0,0,0,1686731144.10152,0,0,9.8,0,0,1,0,0,0,0,,,,,,,,,
1686731144.14183,,,,,,,,,,,,,,,,,,,,,,,,0,1686731144.14183,0,0,0
1686731144.14184,,,,,,,,,,,,,,,,,,,,,,,,,,,,
1686731144.14185,,,,,,,,,,,,,,,,,,,,,,,,,,,,
1686731144.14186,,,,,,,,,,,,,,,,,,,,0,1686731144.14186,101300,15,,,,,
1686731144.14187,0,0,0,0,0,0,0,0,1686731144.14187,0,0,9.8,0,0,1,0,0,0,0,,,,,,,,,
1686731144.18247,,,,,,,,,,,,,,,,,,,,,,,,0,1686731144.18247,0,0,0
1686731144.18249,,,,,,,,,,,,,,,,,,,,,,,,,,,,
1686731144.1825,,,,,,,,,,,,,,,,,,,,,,,,,,,,
1686731144.18251,,,,,,,,,,,,,,,,,,,,0,1686731144.18251,101300,15,,,,,
1686731144.18252,0,0,0,0,0,0,0,0,1686731144.18252,0,0,9.8,0,0,1,0,0,0,0,,,,,,,,,
1686731144.22131,,,,,,,,,,,,,,,,,,,,,,,,0,1686731144.22131,0,0,0
1686731144.22133,,,,,,,,,,,,,,,,,,,,,,,,,,,,
1686731144.22135,,,,,,,,,,,,,,,,,,,,,,,,,,,,
1686731144.22135,,,,,,,,,,,,,,,,,,,,0,1686731144.22135,101300,15,,,,,
1686731144.22136,0,0,0,0,0,0,0,0,1686731144.22136,0,0,9.8,0,0,1,0,0,0,0,,,,,,,,,
1686731144.25801,,,,,,,,,,,,,,,,,,,,,,,,0,1686731144.25801,0,0,0
1686731144.25802,,,,,,,,,,,,,,,,,,,,,,,,,,,,
1686731144.25802,,,,,,,,,,,,,,,,,,,,,,,,,,,,
1686731144.25802,,,,,,,,,,,,,,,,,,,,0,1686731144.25802,101300,15,,,,,
1686731144.25803,0,0,0,0,0,0,0,0,1686731144.25803,0,0,9.8,0,0,1,0,0,0,0,,,,,,,,,
1686731144.29805,,,,,,,,,,,,,,,,,,,,,,,,0,1686731144.29805,0,0,1
1686731144.29806,,,,,,,,,,,,,,,,,,,,,,,,,,,,
1686731144.29806,,,,,,,,,,,,,,,,,,,,,,,,,,,,
1686731144.29806,,,,,,,,,,,,,,,,,,,,0,1686731144.29806,101300,15,,,,,
1686731144.29807,0,0,0,0,0,0,0,0,1686731144.29807,36.91099024,0,9.8,0,0,1,0,0,0,0,,,,,,,,,
1686731144.33817,,,,,,,,,,,,,,,,,,,,,,,,0,1686731144.33817,0.013646125,-0.013646125,1
1686731144.33817,,,,,,,,,,,,,,,,,,,,,,,,,,,,
1686731144.33818,,,,,,,,,,,,,,,,,,,,,,,,,,,,
1686731144.33818,,,,,,,,,,,,,,,,,,,,0.00042771,1686731144.33818,101304.1953125,15,,,,,
1686731144.33818,0,0.630854392,0,0,0,0,0,0,1686731144.33818,14.241560794,0,8.069864339,0.812089963,0,0.999974889,0,0.007086763,0,0,,,,,,,,,
1686731144.35839,,,,,,,,,,,,,,,,,,,,,,,,,,,,
1686731144.3792,,,,,,,,,,,,,,,,,,,,,,,,0,1686731144.3792,0.020220237,-0.020220237,1
1686731144.37921,,,,,,,,,,,,,,,,,,,,,,,,,,,,
1686731144.37921,,,,,,,,,,,,,,,,,,,,,,,,,,,,
1686731144.37922,,,,,,,,,,,,,,,,,,,,0.003816492,1686731144.37922,101337.4375,15,,,,,
1686731144.37922,0,1.060707401,0,0,0,0,0,0,1686731144.37922,3.646621492,0,6.553303168,2.865083912,0,0.999687452,0,0.024999969,0,0,,,,,,,,,
1686731144.42195,,,,,,,,,,,,,,,,,,,,,,,,0,1686731144.42195,0.023643741,-0.023643741,1
1686731144.42198,,,,,,,,,,,,,,,,,,,,,,,,,,,,
1686731144.42199,,,,,,,,,,,,,,,,,,,,,,,,,,,,
1686731144.422,,,,,,,,,,,,,,,,,,,,0.012539336,1686731144.422,101423.0078125,15,,,,,
1686731144.42201,0,1.267034215,0,0,0,0,0,0,1686731144.42201,0.125875119,0,5.78334092,5.592185229,0,0.998809466,0,0.048781654,0,0,,,,,,,,,
1686731144.45898,,,,,,,,,,,,,,,,,,,,,,,,,,,,
1686731144.46205,,,,,,,,,,,,,,,,,,,,,,,,0,1686731144.46205,0.025035959,-0.025035959,1
1686731144.46207,,,,,,,,,,,,,,,,,,,,,,,,,,,,
1686731144.46207,,,,,,,,,,,,,,,,,,,,,,,,,,,,
1686731144.46208,,,,,,,,,,,,,,,,,,,,0.02767837,1686731144.46208,101571.5234375,15,,,,,
1686731144.46209,0,1.360740329,0,0,0,0,0,0,1686731144.46209,-1.195401852,0,5.395977632,8.630536047,0,0.997165118,0,0.075244451,0,0,,,,,,,,,
1686731144.50188,,,,,,,,,,,,,,,,,,,,,,,,0,1686731144.50188,0.026046788,-0.026046788,1
1686731144.50189,,,,,,,,,,,,,,,,,,,,,,,,,,,,
1686731144.5019,,,,,,,,,,,,,,,,,,,,,,,,,,,,
1686731144.5019,,,,,,,,,,,,,,,,,,,,0.049659207,1686731144.5019,101787.15625,15,,,,,
1686731144.50191,0,1.420732222,0,0,0,0,0,0,1686731144.50191,-1.939799047,0,5.101665992,11.831938946,0,0.994674128,0,0.103069776,0,0,,,,,,,,,
1686731144.54144,,,,,,,,,,,,,,,,,,,,,,,,0,1686731144.54144,0.026533678,-0.026533678,1
1686731144.54145,,,,,,,,,,,,,,,,,,,,,,,,,,,,
1686731144.54146,,,,,,,,,,,,,,,,,,,,,,,,,,,,
1686731144.54146,,,,,,,,,,,,,,,,,,,,0.078681514,1686731144.54146,102071.8671875,15,,,,,
1686731144.54147,0,1.45068497,0,0,0,0,0,0,1686731144.54147,-2.540451156,0,4.873468825,15.130788047,0,0.991295241,0,0.131657684,0,0,,,,,,,,,
1686731144.55891,,,,,,,,,,,,,,,,,,,,,,,,,,,,
1686731144.5821,,,,,,,,,,,,,,,,,,,,,,,,0,1686731144.5821,0.0267682,-0.0267682,1
1686731144.58211,,,,,,,,,,,,,,,,,,,,,,,,,,,,
1686731144.58212,,,,,,,,,,,,,,,,,,,,,,,,,,,,
1686731144.58213,,,,,,,,,,,,,,,,,,,,0.11479339,1686731144.58213,102426.125,15,,,,,
1686731144.58215,0,1.46494845,0,0,0,0,0,0,1686731144.58215,-3.101233936,0,4.662480213,18.475863556,0,0.987030202,0,0.160534671,0,0,,,,,,,,,
1686731144.62173,,,,,,,,,,,,,,,,,,,,,,,,0,1686731144.62173,0.018562311,-0.018562311,1
1686731144.62175,,,,,,,,,,,,,,,,,,,,,,,,,,,,
1686731144.62175,,,,,,,,,,,,,,,,,,,,,,,,,,,,
1686731144.62176,,,,,,,,,,,,,,,,,,,,0.157655373,1686731144.62176,102846.6015625,15,,,,,
1686731144.62177,0,1.056623218,0,0,0,0,0,0,1686731144.62177,-3.56259121,0,5.787768016,21.324153678,0,0.982735471,0,0.185016199,0,0,,,,,,,,,
1686731144.65887,,,,,,,,,,,,,,,,,,,,,,,,,,,,
1686731144.6619,,,,,,,,,,,,,,,,,,,,,,,,0,1686731144.6619,0.01460951,-0.01460951,1
1686731144.66192,,,,,,,,,,,,,,,,,,,,,,,,,,,,
1686731144.66192,,,,,,,,,,,,,,,,,,,,,,,,,,,,
1686731144.66193,,,,,,,,,,,,,,,,,,,,0.205605194,1686731144.66193,103316.984375,15,,,,,
1686731144.66195,0,0.819429831,0,0,0,0,0,0,1686731144.66195,-3.892974741,0,6.402214016,23.407695524,0,0.97920919,0,0.202853056,0,0,,,,,,,,,
1686731144.70218,,,,,,,,,,,,,,,,,,,,,,,,0,1686731144.70218,0.009021701,-0.009021701,1
1686731144.7022,,,,,,,,,,,,,,,,,,,,,,,,,,,,
1686731144.7022,,,,,,,,,,,,,,,,,,,,,,,,,,,,
1686731144.70221,,,,,,,,,,,,,,,,,,,,0.257288516,1686731144.70221,103824,15,,,,,
1686731144.70222,0,0.521331897,0,0,0,0,0,0,1686731144.70222,-4.125005578,0,7.240934613,24.893076987,0,0.976497537,0,0.215528558,0,0,,,,,,,,,
1686731144.74242,,,,,,,,,,,,,,,,,,,,,,,,0,1686731144.74242,0.006330127,-0.006330127,1
1686731144.74244,,,,,,,,,,,,,,,,,,,,,,,,,,,,
1686731144.74245,,,,,,,,,,,,,,,,,,,,,,,,,,,,
1686731144.74245,,,,,,,,,,,,,,,,,,,,0.311432272,1686731144.74245,104355.1484375,15,,,,,
1686731144.74246,0,0.359813734,0,0,0,0,0,0,1686731144.74246,-4.274126319,0,7.680995147,25.857676182,0,0.974648705,0,0.223740704,0,0,,,,,,,,,
1686731144.75896,,,,,,,,,,,,,,,,,,,,,,,,,,,,
1686731144.78079,,,,,,,,,,,,,,,,,,,,,,,,0,1686731144.78079,0.00503366,-0.00503366,1
1686731144.78081,,,,,,,,,,,,,,,,,,,,,,,,,,,,
1686731144.78082,,,,,,,,,,,,,,,,,,,,,,,,,,,,
1686731144.78083,,,,,,,,,,,,,,,,,,,,0.36724633,1686731144.78083,104902.6875,15,,,,,
1686731144.78084,0,0.282014108,0,0,0,0,0,0,1686731144.78084,-4.383663549,0,7.873092099,26.57142358,0,0.973236211,0,0.229807042,0,0,,,,,,,,,
1686731144.8207,,,,,,,,,,,,,,,,,,,,,,,,0,1686731144.8207,0.001547031,-0.001547031,1
1686731144.82072,,,,,,,,,,,,,,,,,,,,,,,,,,,,
1686731144.82072,,,,,,,,,,,,,,,,,,,,,,,,,,,,
1686731144.82073,,,,,,,,,,,,,,,,,,,,0.424258411,1686731144.82073,105461.9765625,15,,,,,
1686731144.82075,0,0.101701997,0,0,0,0,0,0,1686731144.82075,-4.44694444,0,8.411354893,26.985819043,0,0.972398802,0,0.233325029,0,0,,,,,,,,,
1686731144.85925,,,,,,,,,,,,,,,,,,,,,,,,,,,,
1686731144.86123,,,,,,,,,,,,,,,,,,,,,,,,0,1686731144.86123,-0.000132403,0.000132403,1
1686731144.86124,,,,,,,,,,,,,,,,,,,,,,,,,,,,
1686731144.86125,,,,,,,,,,,,,,,,,,,,,,,,,,,,
1686731144.86126,,,,,,,,,,,,,,,,,,,,0.481768489,1686731144.86126,106026.1484375,15,,,,,
1686731144.86126,0,0.000920887,0,0,0,0,0,0,1686731144.86126,-4.460572877,0,8.723099991,27.075263304,0,0.972216385,0,0.234083962,0,0,,,,,,,,,
1686731144.90083,,,,,,,,,,,,,,,,,,,,,,,,0,1686731144.90083,-0.001801406,0.001801406,1
1686731144.90084,,,,,,,,,,,,,,,,,,,,,,,,,,,,
1686731144.90085,,,,,,,,,,,,,,,,,,,,,,,,,,,,
1686731144.90086,,,,,,,,,,,,,,,,,,,,0.539273441,1686731144.90086,106590.2734375,15,,,,,
1686731144.90087,0,-0.090544922,0,0,0,0,0,0,1686731144.90087,-4.442177477,0,9.02171934,26.954540957,0,0.972462453,0,0.233059601,0,0,,,,,,,,,
1686731144.94079,,,,,,,,,,,,,,,,,,,,,,,,0,1686731144.94079,-0.002605321,0.002605321,1
1686731144.9408,,,,,,,,,,,,,,,,,,,,,,,,,,,,
1686731144.94081,,,,,,,,,,,,,,,,,,,,,,,,,,,,
1686731144.94082,,,,,,,,,,,,,,,,,,,,0.596388638,1686731144.94082,107150.5703125,15,,,,,
1686731144.94083,0,-0.138787091,0,0,0,0,0,0,1686731144.94083,-4.400005337,0,9.19559234,26.67826949,0,0.973021515,0,0.230714394,0,0,,,,,,,,,
1686731144.95854,,,,,,,,,,,,,,,,,,,,,,,,,,,,
1686731144.97801,,,,,,,,,,,,,,,,,,,,,,,,0,1686731144.97801,-0.002958141,0.002958141,1
1686731144.97802,,,,,,,,,,,,,,,,,,,,,,,,,,,,
1686731144.97802,,,,,,,,,,,,,,,,,,,,,,,,,,,,
1686731144.97802,,,,,,,,,,,,,,,,,,,,0.652885437,1686731144.97802,107704.8046875,15,,,,,
1686731144.97803,0,-0.162024046,0,0,0,0,0,0,1686731144.97803,-4.346248648,0,9.295879276,26.327074129,0,0.973724028,0,0.22773124,0,0,,,,,,,,,
1686731145.01804,,,,,,,,,,,,,,,,,,,,,,,,0,1686731145.01804,-0.003366482,0.003366482,1
1686731145.01805,,,,,,,,,,,,,,,,,,,,,,,,,,,,
1686731145.01805,,,,,,,,,,,,,,,,,,,,,,,,,,,,
1686731145.01805,,,,,,,,,,,,,,,,,,,,0.708642006,1686731145.01805,108251.78125,15,,,,,
1686731145.01805,0,-0.184389835,0,0,0,0,0,0,1686731145.01805,-4.284329115,0,9.396974317,25.923865233,0,0.974519307,0,0.224303632,0,0,,,,,,,,,
1686731145.05855,,,,,,,,,,,,,,,,,,,,,,,,,,,,
1686731145.059,,,,,,,,,,,,,,,,,,,,,,,,0,1686731145.059,-0.003563169,0.003563169,1
1686731145.05901,,,,,,,,,,,,,,,,,,,,,,,,,,,,
1686731145.05902,,,,,,,,,,,,,,,,,,,,,,,,,,,,
1686731145.05902,,,,,,,,,,,,,,,,,,,,0.763563871,1686731145.05902,108790.5625,15,,,,,
1686731145.05902,0,-0.195162828,0,0,0,0,0,0,1686731145.05902,-4.216835027,0,9.463531322,25.485920514,0,0.97536943,0,0.220577596,0,0,,,,,,,,,
1686731145.10073,,,,,,,,,,,,,,,,,,,,,,,,0,1686731145.10073,-0.003517641,0.003517641,1
1686731145.10075,,,,,,,,,,,,,,,,,,,,,,,,,,,,
1686731145.10075,,,,,,,,,,,,,,,,,,,,,,,,,,,,
1686731145.10076,,,,,,,,,,,,,,,,,,,,0.81760329,1686731145.10076,109320.6875,15,,,,,
1686731145.10077,0,-0.192856204,0,0,0,0,0,0,1686731145.10077,-4.148157377,0,9.488648025,25.041927816,0,0.976216749,0,0.216796816,0,0,,,,,,,,,
1686731145.14054,,,,,,,,,,,,,,,,,,,,,,,,0,1686731145.14054,-0.003499127,0.003499127,1
1686731145.14055,,,,,,,,,,,,,,,,,,,,,,,,,,,,
1686731145.14056,,,,,,,,,,,,,,,,,,,,,,,,,,,,
1686731145.14058,,,,,,,,,,,,,,,,,,,,0.870758414,1686731145.14058,109842.140625,15,,,,,
1686731145.14059,0,-0.191745167,0,0,0,0,0,0,1686731145.14059,-4.079787759,0,9.516757275,24.601517485,0,0.977042753,0,0.213043325,0,0,,,,,,,,,
1686731145.15886,,,,,,,,,,,,,,,,,,,,,,,,,,,,
1686731145.18085,,,,,,,,,,,,,,,,,,,,,,,,0,1686731145.18085,-0.003490209,0.003490209,1
1686731145.18086,,,,,,,,,,,,,,,,,,,,,,,,,,,,
1686731145.18087,,,,,,,,,,,,,,,,,,,,,,,,,,,,
1686731145.18087,,,,,,,,,,,,,,,,,,,,0.92303139,1686731145.18087,110354.9375,15,,,,,
1686731145.18088,0,-0.19121001,0,0,0,0,0,0,1686731145.18088,-4.011446373,0,9.546040356,24.162832683,0,0.977851174,0,0.209301412,0,0,,,,,,,,,
1686731145.22241,,,,,,,,,,,,,,,,,,,,,,,,0,1686731145.22241,-0.00324293,0.00324293,1
1686731145.22242,,,,,,,,,,,,,,,,,,,,,,,,,,,,
1686731145.22243,,,,,,,,,,,,,,,,,,,,,,,,,,,,
1686731145.22244,,,,,,,,,,,,,,,,,,,,0.974429965,1686731145.22244,110859.15625,15,,,,,
1686731145.22244,0,-0.178825981,0,0,0,0,0,0,1686731145.22244,-3.945373035,0,9.536229351,23.740134788,0,0.978616577,0,0.205692962,0,0,,,,,,,,,
1686731145.25878,,,,,,,,,,,,,,,,,,,,,,,,,,,,
1686731145.26062,,,,,,,,,,,,,,,,,,,,,,,,0,1686731145.26062,-0.003123823,0.003123823,1
1686731145.26064,,,,,,,,,,,,,,,,,,,,,,,,,,,,
1686731145.26064,,,,,,,,,,,,,,,,,,,,,,,,,,,,
1686731145.26065,,,,,,,,,,,,,,,,,,,,1.024997592,1686731145.26065,111355.2265625,15,,,,,
1686731145.26066,0,-0.171678469,0,0,0,0,0,0,1686731145.26066,-3.882704548,0,9.540928404,23.340482927,0,0.979328003,0,0.202278675,0,0,,,,,,,,,
1686731145.30072,,,,,,,,,,,,,,,,,,,,,,,,0,1686731145.30072,-0.002972505,0.002972505,1
1686731145.30074,,,,,,,,,,,,,,,,,,,,,,,,,,,,
1686731145.30075,,,,,,,,,,,,,,,,,,,,,,,,,,,,
1686731145.30075,,,,,,,,,,,,,,,,,,,,1.074769735,1686731145.30075,111843.4921875,15,,,,,
1686731145.30076,0,-0.163547198,0,0,0,0,0,0,1686731145.30076,-3.822518502,0,9.540947621,22.957791553,0,0.979998073,0,0.199006977,0,0,,,,,,,,,
1686731145.34066,,,,,,,,,,,,,,,,,,,,,,,,0,1686731145.34066,-0.00289962,0.00289962,1
1686731145.34068,,,,,,,,,,,,,,,,,,,,,,,,,,,,
1686731145.34069,,,,,,,,,,,,,,,,,,,,,,,,,,,,
1686731145.3407,,,,,,,,,,,,,,,,,,,,1.123778224,1686731145.3407,112324.265625,15,,,,,
1686731145.34071,0,-0.159173397,0,0,0,0,0,0,1686731145.34071,-3.764389133,0,9.551520152,22.589202813,0,0.980633117,0,0.195853747,0,0,,,,,,,,,
1686731145.35863,,,,,,,,,,,,,,,,,,,,,,,,,,,,
1686731145.38096,,,,,,,,,,,,,,,,,,,,,,,,0,1686731145.38096,-0.002864512,0.002864512,1
1686731145.38098,,,,,,,,,,,,,,,,,,,,,,,,,,,,
1686731145.38099,,,,,,,,,,,,,,,,,,,,,,,,,,,,
1686731145.38099,,,,,,,,,,,,,,,,,,,,1.172042608,1686731145.38099,112797.734375,15,,,,,
1686731145.381,0,-0.157066656,0,0,0,0,0,0,1686731145.381,-3.70717953,0,9.568447852,22.227406928,0,0.98124659,0,0.192756657,0,0,,,,,,,,,
1686731145.42002,,,,,,,,,,,,,,,,,,,,,,,,0,1686731145.42002,-0.002891226,0.002891226,1
1686731145.42007,,,,,,,,,,,,,,,,,,,,,,,,,,,,
1686731145.42008,,,,,,,,,,,,,,,,,,,,,,,,,,,,
1686731145.42009,,,,,,,,,,,,,,,,,,,,1.219569325,1686731145.42009,113263.9765625,15,,,,,
1686731145.4201,0,-0.158358964,0,0,0,0,0,0,1686731145.4201,-3.649883778,0,9.595737817,21.865999532,0,0.981849639,0,0.189660975,0,0,,,,,,,,,
1686731145.45873,,,,,,,,,,,,,,,,,,,,,,,,,,,,
1686731145.46096,,,,,,,,,,,,,,,,,,,,,,,,0,1686731145.46096,-0.002907953,0.002907953,1
1686731145.46098,,,,,,,,,,,,,,,,,,,,,,,,,,,,
1686731145.46098,,,,,,,,,,,,,,,,,,,,,,,,,,,,
1686731145.46099,,,,,,,,,,,,,,,,,,,,1.266352892,1686731145.46099,113722.921875,15,,,,,
1686731145.461,0,-0.159206401,0,0,0,0,0,0,1686731145.461,-3.592007975,0,9.621430426,21.501859708,0,0.98244737,0,0.18653998,0,0,,,,,,,,,
1686731145.50002,,,,,,,,,,,,,,,,,,,,,,,,0,1686731145.50002,-0.003044389,0.003044389,1
1686731145.50007,,,,,,,,,,,,,,,,,,,,,,,,,,,,
1686731145.50007,,,,,,,,,,,,,,,,,,,,,,,,,,,,
1686731145.50008,,,,,,,,,,,,,,,,,,,,1.31238246,1686731145.50008,114174.46875,15,,,,,
1686731145.50009,0,-0.166748046,0,0,0,0,0,0,1686731145.50009,-3.532354718,0,9.668554637,21.127488134,0,0.983051554,0,0.183329327,0,0,,,,,,,,,
1686731145.54012,,,,,,,,,,,,,,,,,,,,,,,,0,1686731145.54012,-0.003123411,0.003123411,1
1686731145.54013,,,,,,,,,,,,,,,,,,,,,,,,,,,,
1686731145.54014,,,,,,,,,,,,,,,,,,,,,,,,,,,,
1686731145.54015,,,,,,,,,,,,,,,,,,,,1.357626915,1686731145.54015,114618.3203125,15,,,,,
1686731145.54016,0,-0.171076254,0,0,0,0,0,0,1686731145.54016,-3.470318427,0,9.705972339,20.739160935,0,0.983667174,0,0.179996921,0,0,,,,,,,,,
1686731145.55874,,,,,,,,,,,,,,,,,,,,,,,,,,,,
1686731145.57994,,,,,,,,,,,,,,,,,,,,,,,,0,1686731145.57993,-0.003161473,0.003161473,1
1686731145.57995,,,,,,,,,,,,,,,,,,,,,,,,,,,,
1686731145.57996,,,,,,,,,,,,,,,,,,,,,,,,,,,,
1686731145.57997,,,,,,,,,,,,,,,,,,,,1.402062893,1686731145.57997,115054.234375,15,,,,,
1686731145.57997,0,-0.173161033,0,0,0,0,0,0,1686731145.57997,-3.407044715,0,9.736274485,20.344111692,0,0.984281858,0,0.17660471,0,0,,,,,,,,,
1686731145.62074,,,,,,,,,,,,,,,,,,,,,,,,0,1686731145.62074,-0.003532048,0.003532048,1
1686731145.62075,,,,,,,,,,,,,,,,,,,,,,,,,,,,
1686731145.62076,,,,,,,,,,,,,,,,,,,,,,,,,,,,
1686731145.62077,,,,,,,,,,,,,,,,,,,,1.445665717,1686731145.62077,115481.984375,15,,,,,
1686731145.62079,0,-0.191669863,0,0,0,0,0,0,1686731145.62079,-3.339570637,0,9.819542002,19.923946778,0,0.984922785,0,0.172994533,0,0,,,,,,,,,
1686731145.65894,,,,,,,,,,,,,,,,,,,,,,,,,,,,
1686731145.66082,,,,,,,,,,,,,,,,,,,,,,,,0,1686731145.66082,-0.003709056,0.003709056,1
1686731145.66084,,,,,,,,,,,,,,,,,,,,,,,,,,,,
1686731145.66085,,,,,,,,,,,,,,,,,,,,,,,,,,,,
1686731145.66086,,,,,,,,,,,,,,,,,,,,1.488361359,1686731145.66086,115900.828125,15,,,,,
1686731145.66087,0,-0.202291988,0,0,0,0,0,0,1686731145.66087,-3.266394435,0,9.879328286,19.469532491,0,0.985601051,0,0.169087459,0,0,,,,,,,,,
1686731145.70115,,,,,,,,,,,,,,,,,,,,,,,,0,1686731145.70115,-0.004115405,0.004115405,1
1686731145.70116,,,,,,,,,,,,,,,,,,,,,,,,,,,,
1686731145.70117,,,,,,,,,,,,,,,,,,,,,,,,,,,,
1686731145.70117,,,,,,,,,,,,,,,,,,,,1.530083179,1686731145.70117,116310.1171875,15,,,,,
1686731145.70118,0,-0.223432526,0,0,0,0,0,0,1686731145.70118,-3.187105793,0,9.973829108,18.978593742,0,0.986316416,0,0.16486336,0,0,,,,,,,,,
1686731145.74077,,,,,,,,,,,,,,,,,,,,,,,,0,1686731145.74077,-0.004311132,0.004311132,1
1686731145.74078,,,,,,,,,,,,,,,,,,,,,,,,,,,,
1686731145.74079,,,,,,,,,,,,,,,,,,,,,,,,,,,,
1686731145.74079,,,,,,,,,,,,,,,,,,,,1.570740819,1686731145.74079,116708.96875,15,,,,,
1686731145.7408,0,-0.235177907,0,0,0,0,0,0,1686731145.7408,-3.10143921,0,10.039991448,18.44978386,0,0.987066712,0,0.16031003,0,0,,,,,,,,,
1686731145.75873,,,,,,,,,,,,,,,,,,,,,,,,,,,,
1686731145.78081,,,,,,,,,,,,,,,,,,,,,,,,0,1686731145.78081,-0.004405408,0.004405408,1
1686731145.78083,,,,,,,,,,,,,,,,,,,,,,,,,,,,
1686731145.78083,,,,,,,,,,,,,,,,,,,,,,,,,,,,
1686731145.78084,,,,,,,,,,,,,,,,,,,,1.610272288,1686731145.78084,117096.7734375,15,,,,,
1686731145.78086,0,-0.240835337,0,0,0,0,0,0,1686731145.78086,-3.012539598,0,10.087069703,17.902732484,0,0.987820769,0,0.15559604,0,0,,,,,,,,,
1686731145.821,,,,,,,,,,,,,,,,,,,,,,,,0,1686731145.821,-0.00499086,0.00499086,1
1686731145.82102,,,,,,,,,,,,,,,,,,,,,,,,,,,,
1686731145.82103,,,,,,,,,,,,,,,,,,,,,,,,,,,,
1686731145.82103,,,,,,,,,,,,,,,,,,,,1.648626685,1686731145.82103,117473.03125,15,,,,,
1686731145.82104,0,-0.270511581,0,0,0,0,0,0,1686731145.82104,-2.916430977,0,10.211416396,17.313210227,0,0.988608166,0,0.150512108,0,0,,,,,,,,,
1686731145.85912,,,,,,,,,,,,,,,,,,,,,,,,,,,,
1686731145.8616,,,,,,,,,,,,,,,,,,,,,,,,0,1686731145.8616,-0.005272856,0.005272856,1
1686731145.86161,,,,,,,,,,,,,,,,,,,,,,,,,,,,
1686731145.86162,,,,,,,,,,,,,,,,,,,,,,,,,,,,
1686731145.86163,,,,,,,,,,,,,,,,,,,,1.685681581,1686731145.86163,117836.5390625,15,,,,,
1686731145.86164,0,-0.287433909,0,0,0,0,0,0,1686731145.86164,-2.811074425,0,10.297122468,16.669124587,0,0.98943853,0,0.144953082,0,0,,,,,,,,,
1686731145.90108,,,,,,,,,,,,,,,,,,,,,,,,0,1686731145.90108,-0.005808601,0.005808601,1
1686731145.90114,,,,,,,,,,,,,,,,,,,,,,,,,,,,
1686731145.90114,,,,,,,,,,,,,,,,,,,,,,,,,,,,
1686731145.90115,,,,,,,,,,,,,,,,,,,,1.721332908,1686731145.90115,118186.2734375,15,,,,,
1686731145.90116,0,-0.31554301,0,0,0,0,0,0,1686731145.90116,-2.696940239,0,10.419432849,15.973813036,0,0.990299847,0,0.138946797,0,0,,,,,,,,,
1686731145.93833,,,,,,,,,,,,,,,,,,,,,,,,0,1686731145.93833,-0.006043727,0.006043727,1
1686731145.93834,,,,,,,,,,,,,,,,,,,,,,,,,,,,
1686731145.93834,,,,,,,,,,,,,,,,,,,,,,,,,,,,
1686731145.93835,,,,,,,,,,,,,,,,,,,,1.75545609,1686731145.93835,118521.0234375,15,,,,,
1686731145.93835,0,-0.331028567,0,0,0,0,0,0,1686731145.93835,-2.574169478,0,10.502683444,15.228570743,0,0.991182534,0,0.132503523,0,0,,,,,,,,,
1686731145.95836,,,,,,,,,,,,,,,,,,,,,,,,,,,,
1686731145.97759,,,,,,,,,,,,,,,,,,,,,,,,0,1686731145.97759,-0.006179909,0.006179909,1
1686731145.9776,,,,,,,,,,,,,,,,,,,,,,,,,,,,
1686731145.9776,,,,,,,,,,,,,,,,,,,,,,,,,,,,
1686731145.9776,,,,,,,,,,,,,,,,,,,,1.787966609,1686731145.9776,118839.953125,15,,,,,
1686731145.9776,0,-0.338487538,0,0,0,0,0,0,1686731145.9776,-2.446980123,0,10.559979994,14.459278169,0,0.992049734,0,0.125846437,0,0,,,,,,,,,
1686731146.01728,,,,,,,,,,,,,,,,,,,,,,,,0,1686731146.01728,-0.006761487,0.006761487,1
1686731146.01729,,,,,,,,,,,,,,,,,,,,,,,,,,,,
1686731146.01729,,,,,,,,,,,,,,,,,,,,,,,,,,,,
1686731146.01729,,,,,,,,,,,,,,,,,,,,1.818793654,1686731146.01729,119142.3671875,15,,,,,
1686731146.0173,0,-0.370341905,0,0,0,0,0,0,1686731146.0173,-2.310729682,0,10.69480643,13.638121028,0,0.992926064,0,0.11873429,0,0,,,,,,,,,
1686731146.05775,,,,,,,,,,,,,,,,,,,,,,,,0,1686731146.05775,-0.007041618,0.007041618,1
1686731146.05776,,,,,,,,,,,,,,,,,,,,,,,,,,,,
1686731146.05776,,,,,,,,,,,,,,,,,,,,,,,,,,,,
1686731146.05776,,,,,,,,,,,,,,,,,,,,1.847806573,1686731146.05776,119426.984375,15,,,,,
1686731146.05776,0,-0.38568529,0,0,0,0,0,0,1686731146.05776,-2.165752787,0,10.77733799,12.767491555,0,0.993799502,0,0.111187006,0,0,,,,,,,,,
1686731146.05829,,,,,,,,,,,,,,,,,,,,,,,,,,,,
1686731146.09873,,,,,,,,,,,,,,,,,,,,,,,,0,1686731146.09873,-0.007176549,0.007176549,1
1686731146.09874,,,,,,,,,,,,,,,,,,,,,,,,,,,,
1686731146.09874,,,,,,,,,,,,,,,,,,,,,,,,,,,,
1686731146.09874,,,,,,,,,,,,,,,,,,,,1.874919891,1686731146.09874,119692.9609375,15,,,,,
1686731146.09875,0,-0.393075781,0,0,0,0,0,0,1686731146.09875,-2.016287357,0,10.833352882,11.873032604,0,0.994637102,0,0.10342647,0,0,,,,,,,,,
1686731146.14129,,,,,,,,,,,,,,,,,,,,,,,,0,1686731146.14129,-0.007591978,0.007591978,1
1686731146.1413,,,,,,,,,,,,,,,,,,,,,,,,,,,,
1686731146.14131,,,,,,,,,,,,,,,,,,,,,,,,,,,,
1686731146.14132,,,,,,,,,,,,,,,,,,,,1.900071979,1686731146.14132,119939.703125,15,,,,,
1686731146.14133,0,-0.414122955,0,0,0,0,0,0,1686731146.14133,-1.860217818,0,10.931400579,10.942171525,0,0.99544444,0,0.095343415,0,0,,,,,,,,,
1686731146.15885,,,,,,,,,,,,,,,,,,,,,,,,,,,,
1686731146.18012,,,,,,,,,,,,,,,,,,,,,,,,0,1686731146.18012,-0.007745907,0.007745907,1
1686731146.18013,,,,,,,,,,,,,,,,,,,,,,,,,,,,
1686731146.18014,,,,,,,,,,,,,,,,,,,,,,,,,,,,
1686731146.18015,,,,,,,,,,,,,,,,,,,,1.92317152,1686731146.18015,120166.3125,15,,,,,
1686731146.18016,0,-0.424260806,0,0,0,0,0,0,1686731146.18016,-1.698151123,0,10.993380712,9.978622536,0,0.99621094,0,0.086969898,0,0,,,,,,,,,
1686731146.22078,,,,,,,,,,,,,,,,,,,,,,,,0,1686731146.22078,-0.007863631,0.007863631,1
1686731146.22079,,,,,,,,,,,,,,,,,,,,,,,,,,,,
1686731146.22079,,,,,,,,,,,,,,,,,,,,,,,,,,,,
1686731146.2208,,,,,,,,,,,,,,,,,,,,1.944158673,1686731146.2208,120372.1953125,15,,,,,
1686731146.22081,0,-0.43020897,0,0,0,0,0,0,1686731146.22081,-1.532719471,0,11.039839525,8.997997555,0,0.996918705,0,0.078441675,0,0,,,,,,,,,
1686731146.25868,,,,,,,,,,,,,,,,,,,,,,,,,,,,
1686731146.26073,,,,,,,,,,,,,,,,,,,,,,,,0,1686731146.26073,-0.007913106,0.007913106,1
1686731146.26075,,,,,,,,,,,,,,,,,,,,,,,,,,,,
1686731146.26076,,,,,,,,,,,,,,,,,,,,,,,,,,,,
1686731146.26077,,,,,,,,,,,,,,,,,,,,1.962997675,1686731146.26077,120557.0078125,15,,,,,
1686731146.26077,0,-0.433177893,0,0,0,0,0,0,1686731146.26077,-1.36521748,0,11.074270088,8.007799748,0,0.9975593,0,0.069824373,0,0,,,,,,,,,
1686731146.30059,,,,,,,,,,,,,,,,,,,,,,,,0,1686731146.30058,-0.00775975,0.00775975,1
1686731146.3006,,,,,,,,,,,,,,,,,,,,,,,,,,,,
1686731146.3006,,,,,,,,,,,,,,,,,,,,,,,,,,,,
1686731146.30061,,,,,,,,,,,,,,,,,,,,1.979673624,1686731146.30061,120720.6015625,15,,,,,
1686731146.30062,0,-0.425765293,0,0,0,0,0,0,1686731146.30062,-1.19840114,0,11.072838338,7.024042785,0,0.998121968,0,0.06125796,0,0,,,,,,,,,
1686731146.34083,,,,,,,,,,,,,,,,,,,,,,,,0,1686731146.34083,-0.007685882,0.007685882,1
1686731146.34084,,,,,,,,,,,,,,,,,,,,,,,,,,,,
1686731146.34085,,,,,,,,,,,,,,,,,,,,,,,,,,,,
1686731146.34086,,,,,,,,,,,,,,,,,,,,1.994210005,1686731146.34086,120863.203125,15,,,,,
1686731146.34086,0,-0.421332576,0,0,0,0,0,0,1686731146.34086,-1.033662552,0,11.077704949,6.054578423,0,0.998604495,0,0.052811584,0,0,,,,,,,,,
1686731146.35888,,,,,,,,,,,,,,,,,,,,,,,,,,,,
1686731146.38075,,,,,,,,,,,,,,,,,,,,,,,,0,1686731146.38075,-0.007650302,0.007650302,1
1686731146.38077,,,,,,,,,,,,,,,,,,,,,,,,,,,,
1686731146.38078,,,,,,,,,,,,,,,,,,,,,,,,,,,,
1686731146.38078,,,,,,,,,,,,,,,,,,,,2.006625891,1686731146.38078,120985,15,,,,,
1686731146.38079,0,-0.419197457,0,0,0,0,0,0,1686731146.38079,-0.86980091,0,11.08694276,5.091998417,0,0.99901288,0,0.044421447,0,0,,,,,,,,,
1686731146.42056,,,,,,,,,,,,,,,,,,,,,,,,0,1686731146.42056,-0.007033856,0.007033856,1
1686731146.42058,,,,,,,,,,,,,,,,,,,,,,,,,,,,
1686731146.42059,,,,,,,,,,,,,,,,,,,,,,,,,,,,
1686731146.42059,,,,,,,,,,,,,,,,,,,,2.016950846,1686731146.42059,121086.2890625,15,,,,,
1686731146.4206,0,-0.388260041,0,0,0,0,0,0,1686731146.4206,-0.712636463,0,11.001840958,4.170115582,0,0.999337916,0,0.036383092,0,0,,,,,,,,,
1686731146.45918,,,,,,,,,,,,,,,,,,,,,,,,,,,,
1686731146.4616,,,,,,,,,,,,,,,,,,,,,,,,0,1686731146.4616,-0.00673693,0.00673693,1
1686731146.46162,,,,,,,,,,,,,,,,,,,,,,,,,,,,
1686731146.46163,,,,,,,,,,,,,,,,,,,,,,,,,,,,
1686731146.46164,,,,,,,,,,,,,,,,,,,,2.025309086,1686731146.46163,121168.28125,15,,,,,
1686731146.46164,0,-0.37044182,0,0,0,0,0,0,1686731146.46164,-0.565098189,0,10.955133675,3.305684794,0,0.999583939,0,0.028843541,0,0,,,,,,,,,
1686731146.50099,,,,,,,,,,,,,,,,,,,,,,,,0,1686731146.50099,-0.006010343,0.006010343,1
1686731146.501,,,,,,,,,,,,,,,,,,,,,,,,,,,,
1686731146.50101,,,,,,,,,,,,,,,,,,,,,,,,,,,,
1686731146.50102,,,,,,,,,,,,,,,,,,,,2.03181386,1686731146.50102,121232.09375,15,,,,,
1686731146.50103,0,-0.332735949,0,0,0,0,0,0,1686731146.50103,-0.428380151,0,10.842836248,2.505326308,0,0.999761012,0,0.021861355,0,0,,,,,,,,,
1686731146.54001,,,,,,,,,,,,,,,,,,,,,,,,0,1686731146.54001,-0.005691461,0.005691461,1
1686731146.54003,,,,,,,,,,,,,,,,,,,,,,,,,,,,
1686731146.54006,,,,,,,,,,,,,,,,,,,,,,,,,,,,
1686731146.54007,,,,,,,,,,,,,,,,,,,,2.036627769,1686731146.54007,121279.3203125,15,,,,,
1686731146.54008,0,-0.311734156,0,0,0,0,0,0,1686731146.54008,-0.303155655,0,10.781099888,1.772684792,0,0.999880348,0,0.015468976,0,0,,,,,,,,,
1686731146.55905,,,,,,,,,,,,,,,,,,,,,,,,,,,,
1686731146.58001,,,,,,,,,,,,,,,,,,,,,,,,0,1686731146.58001,-0.005506769,0.005506769,1
1686731146.58002,,,,,,,,,,,,,,,,,,,,,,,,,,,,
1686731146.58002,,,,,,,,,,,,,,,,,,,,,,,,,,,,
1686731146.58003,,,,,,,,,,,,,,,,,,,,2.039860964,1686731146.58003,121311.0390625,15,,,,,
1686731146.58006,0,-0.301618163,0,0,0,0,0,0,1686731146.58006,-0.183459601,0,10.752083013,1.072660706,0,0.999956189,0,0.009360594,0,0,,,,,,,,,
1686731146.6208,,,,,,,,,,,,,,,,,,,,,,,,0,1686731146.6208,-0.004463121,0.004463121,1
1686731146.62081,,,,,,,,,,,,,,,,,,,,,,,,,,,,
1686731146.62082,,,,,,,,,,,,,,,,,,,,,,,,,,,,
1686731146.62083,,,,,,,,,,,,,,,,,,,,2.041600943,1686731146.62083,121328.1015625,15,,,,,
1686731146.62083,0,-0.249461194,0,0,0,0,0,0,1686731146.62083,-0.076531227,0,10.588566729,0.447444986,0,0.999992377,0,0.003904684,0,0,,,,,,,,,
1686731146.65911,,,,,,,,,,,,,,,,,,,,,,,,,,,,
1686731146.66243,,,,,,,,,,,,,,,,,,,,,,,,0,1686731146.66243,-0.003967639,0.003967639,1
1686731146.66245,,,,,,,,,,,,,,,,,,,,,,,,,,,,
1686731146.66246,,,,,,,,,,,,,,,,,,,,,,,,,,,,
1686731146.66247,,,,,,,,,,,,,,,,,,,,2.04206562,1686731146.66247,121332.6640625,15,,,,,
1686731146.66248,0,-0.21972775,0,0,0,0,0,0,1686731146.66248,0.014008349,0,10.494830144,-0.081899953,0,0.999999745,0,-0.000714712,0,0,,,,,,,,,
1686731146.70087,,,,,,,,,,,,,,,,,,,,,,,,0,1686731146.70087,-0.00307509,0.00307509,1
1686731146.70089,,,,,,,,,,,,,,,,,,,,,,,,,,,,
1686731146.7009,,,,,,,,,,,,,,,,,,,,,,,,,,,,
1686731146.7009,,,,,,,,,,,,,,,,,,,,2.041436672,1686731146.7009,121326.4921875,15,,,,,
1686731146.70091,0,-0.172773143,0,0,0,0,0,0,1686731146.70091,0.089672966,0,10.345946375,-0.524281041,0,0.999989534,0,-0.004575199,0,0,,,,,,,,,
1686731146.74048,,,,,,,,,,,,,,,,,,,,,,,,0,1686731146.74048,-0.002645173,0.002645173,1
1686731146.74049,,,,,,,,,,,,,,,,,,,,,,,,,,,,
1686731146.7405,,,,,,,,,,,,,,,,,,,,,,,,,,,,
1686731146.74052,,,,,,,,,,,,,,,,,,,,2.039921999,1686731146.74052,121311.6328125,15,,,,,
1686731146.74053,0,-0.146974257,0,0,0,0,0,0,1686731146.74053,0.15110604,0,10.263608391,-0.883477698,0,0.99997028,0,-0.007709721,0,0,,,,,,,,,
1686731146.7589,,,,,,,,,,,,,,,,,,,,,,,,,,,,
1686731146.77971,,,,,,,,,,,,,,,,,,,,,,,,0,1686731146.77971,-0.002456493,0.002456493,1
1686731146.77973,,,,,,,,,,,,,,,,,,,,,,,,,,,,
1686731146.77973,,,,,,,,,,,,,,,,,,,,,,,,,,,,
1686731146.77974,,,,,,,,,,,,,,,,,,,,2.037658691,1686731146.77974,121289.4296875,15,,,,,
1686731146.77975,0,-0.134547635,0,0,0,0,0,0,1686731146.77975,0.205681467,0,10.22331833,-1.202606664,0,0.999944931,0,-0.01049453,0,0,,,,,,,,,
1686731146.82052,,,,,,,,,,,,,,,,,,,,,,,,0,1686731146.82052,-0.00153588,0.00153588,1
1686731146.82054,,,,,,,,,,,,,,,,,,,,,,,,,,,,
1686731146.82055,,,,,,,,,,,,,,,,,,,,,,,,,,,,
1686731146.82056,,,,,,,,,,,,,,,,,,,,2.034741402,1686731146.82056,121260.8125,15,,,,,
1686731146.82056,0,-0.088514216,0,0,0,0,0,0,1686731146.82056,0.248392292,0,10.076758126,-1.452383089,0,0.99991968,0,-0.012674094,0,0,,,,,,,,,
1686731146.85898,,,,,,,,,,,,,,,,,,,,,,,,,,,,
1686731146.86097,,,,,,,,,,,,,,,,,,,,,,,,0,1686731146.86097,-0.001101309,0.001101309,1
1686731146.86098,,,,,,,,,,,,,,,,,,,,,,,,,,,,
1686731146.86099,,,,,,,,,,,,,,,,,,,,,,,,,,,,
1686731146.861,,,,,,,,,,,,,,,,,,,,2.031365156,1686731146.861,121227.6953125,15,,,,,
1686731146.86101,0,-0.06243598,0,0,0,0,0,0,1686731146.86101,0.276722321,0,9.993532226,-1.618074367,0,0.999900309,0,-0.014119893,0,0,,,,,,,,,
1686731146.90083,,,,,,,,,,,,,,,,,,,,,,,,0,1686731146.90083,-0.000451803,0.000451803,1
1686731146.90084,,,,,,,,,,,,,,,,,,,,,,,,,,,,
1686731146.90085,,,,,,,,,,,,,,,,,,,,,,,,,,,,
1686731146.90086,,,,,,,,,,,,,,,,,,,,2.027683735,1686731146.90086,121191.578125,15,,,,,
1686731146.90087,0,-0.027907067,0,0,0,0,0,0,1686731146.90087,0.293431854,0,9.883855936,-1.715808156,0,0.999887903,0,-0.014972691,0,0,,,,,,,,,
1686731146.94028,,,,,,,,,,,,,,,,,,,,,,,,0,1686731146.94028,-0.00016675,0.00016675,1
1686731146.94029,,,,,,,,,,,,,,,,,,,,,,,,,,,,
1686731146.9403,,,,,,,,,,,,,,,,,,,,,,,,,,,,
1686731146.94032,,,,,,,,,,,,,,,,,,,,2.023853064,1686731146.94032,121154,15,,,,,
1686731146.94033,0,-0.00913329,0,0,0,0,0,0,1686731146.94033,0.299791831,0,9.82429546,-1.753008861,0,0.99988299,0,-0.015297292,0,0,,,,,,,,,
1686731146.95877,,,,,,,,,,,,,,,,,,,,,,,,,,,,
1686731146.98124,,,,,,,,,,,,,,,,,,,,,,,,0,1686731146.98124,0.000011737,-0.000011737,1
1686731146.98126,,,,,,,,,,,,,,,,,,,,,,,,,,,,
1686731146.98127,,,,,,,,,,,,,,,,,,,,,,,,,,,,
1686731146.98128,,,,,,,,,,,,,,,,,,,,2.019972324,1686731146.98128,121115.9296875,15,,,,,
1686731146.98129,0,-0.000090473,0,0,0,0,0,0,1686731146.98129,0.301166974,0,9.795657378,-1.761052423,0,0.999881913,0,-0.015367477,0,0,,,,,,,,,
1686731147.02069,,,,,,,,,,,,,,,,,,,,,,,,0,1686731147.02069,0.000494479,-0.000494479,1
1686731147.02071,,,,,,,,,,,,,,,,,,,,,,,,,,,,
1686731147.02072,,,,,,,,,,,,,,,,,,,,,,,,,,,,
1686731147.02073,,,,,,,,,,,,,,,,,,,,2.016104221,1686731147.02073,121077.984375,15,,,,,
1686731147.02074,0,0.024734498,0,0,0,0,0,0,1686731147.02073,0.295767317,0,9.717318454,-1.729468635,0,0.999886111,0,-0.015091888,0,0,,,,,,,,,
1686731147.05887,,,,,,,,,,,,,,,,,,,,,,,,,,,,
1686731147.06079,,,,,,,,,,,,,,,,,,,,,,,,0,1686731147.06079,0.000727003,-0.000727003,1
1686731147.0608,,,,,,,,,,,,,,,,,,,,,,,,,,,,
1686731147.0608,,,,,,,,,,,,,,,,,,,,,,,,,,,,
1686731147.06081,,,,,,,,,,,,,,,,,,,,2.012355089,1686731147.06081,121041.203125,15,,,,,
1686731147.06082,0,0.038688028,0,0,0,0,0,0,1686731147.06082,0.282675504,0,9.673580057,-1.652893885,0,0.999895973,0,-0.01442372,0,0,,,,,,,,,
1686731147.09989,,,,,,,,,,,,,,,,,,,,,,,,0,1686731147.09989,0.00097066,-0.00097066,1
1686731147.0999,,,,,,,,,,,,,,,,,,,,,,,,,,,,
1686731147.09991,,,,,,,,,,,,,,,,,,,,,,,,,,,,
1686731147.09991,,,,,,,,,,,,,,,,,,,,2.008804321,1686731147.09991,121006.3671875,15,,,,,
1686731147.09992,0,0.05316525,0,0,0,0,0,0,1686731147.09992,0.264220463,0,9.62831421,-1.544954292,0,0.999909116,0,-0.013481861,0,0,,,,,,,,,
1686731147.13821,,,,,,,,,,,,,,,,,,,,,,,,0,1686731147.13821,0.001111783,-0.001111783,1
1686731147.13822,,,,,,,,,,,,,,,,,,,,,,,,,,,,
1686731147.13822,,,,,,,,,,,,,,,,,,,,,,,,,,,,
1686731147.13822,,,,,,,,,,,,,,,,,,,,2.005519152,1686731147.13822,120974.140625,15,,,,,
1686731147.13822,0,0.06089486,0,0,0,0,0,0,1686731147.13822,0.24150293,0,9.604457394,-1.412091785,0,0.999924075,0,-0.012322514,0,0,,,,,,,,,
1686731147.15854,,,,,,,,,,,,,,,,,,,,,,,,,,,,
1686731147.17896,,,,,,,,,,,,,,,,,,,,,,,,0,1686731147.17896,0.001179758,-0.001179758,1
1686731147.17897,,,,,,,,,,,,,,,,,,,,,,,,,,,,
1686731147.17898,,,,,,,,,,,,,,,,,,,,,,,,,,,,
1686731147.17898,,,,,,,,,,,,,,,,,,,,2.002540588,1686731147.17898,120944.921875,15,,,,,
1686731147.17899,0,0.064618003,0,0,0,0,0,0,1686731147.17899,0.216731295,0,9.593263085,-1.267224589,0,0.999938854,0,-0.011058395,0,0,,,,,,,,,
1686731147.21994,,,,,,,,,,,,,,,,,,,,,,,,0,1686731147.21995,0.00126083,-0.00126083,1
1686731147.21996,,,,,,,,,,,,,,,,,,,,,,,,,,,,
1686731147.21997,,,,,,,,,,,,,,,,,,,,,,,,,,,,
1686731147.21998,,,,,,,,,,,,,,,,,,,,1.999890447,1686731147.21998,120918.9296875,15,,,,,
1686731147.21998,0,0.069058519,0,0,0,0,0,0,1686731147.21998,0.190324233,0,9.579769487,-1.112802133,0,0.999952848,0,-0.009710878,0,0,,,,,,,,,
1686731147.25872,,,,,,,,,,,,,,,,,,,,,,,,,,,,
1686731147.26087,,,,,,,,,,,,,,,,,,,,,,,,0,1686731147.26087,0.001303047,-0.001303047,1
1686731147.26089,,,,,,,,,,,,,,,,,,,,,,,,,,,,
1686731147.2609,,,,,,,,,,,,,,,,,,,,,,,,,,,,
1686731147.26091,,,,,,,,,,,,,,,,,,,,1.997588873,1686731147.26091,120896.34375,15,,,,,
1686731147.26092,0,0.071197394,0,0,0,0,0,0,1686731147.26092,0.162736365,0,9.573502798,-0.951483209,0,0.999965528,0,-0.008303162,0,0,,,,,,,,,
1686731147.3009,,,,,,,,,,,,,,,,,,,,,,,,0,1686731147.3009,0.001270837,-0.001270837,1
1686731147.30092,,,,,,,,,,,,,,,,,,,,,,,,,,,,
1686731147.30092,,,,,,,,,,,,,,,,,,,,,,,,,,,,
1686731147.30093,,,,,,,,,,,,,,,,,,,,1.995645165,1686731147.30093,120877.28125,15,,,,,
1686731147.30094,0,0.069763369,0,0,0,0,0,0,1686731147.30094,0.13510583,0,9.578457507,-0.789922355,0,0.999976241,0,-0.006893318,0,0,,,,,,,,,
1686731147.34084,,,,,,,,,,,,,,,,,,,,,,,,0,1686731147.34084,0.001255322,-0.001255322,1
1686731147.34085,,,,,,,,,,,,,,,,,,,,,,,,,,,,
1686731147.34085,,,,,,,,,,,,,,,,,,,,,,,,,,,,
1686731147.34086,,,,,,,,,,,,,,,,,,,,1.994054794,1686731147.34086,120861.6796875,15,,,,,
1686731147.34086,0,0.068832342,0,0,0,0,0,0,1686731147.34086,0.107987651,0,9.58173804,-0.631363454,0,0.999984822,0,-0.005509658,0,0,,,,,,,,,
1686731147.35896,,,,,,,,,,,,,,,,,,,,,,,,,,,,
1686731147.3821,,,,,,,,,,,,,,,,,,,,,,,,0,1686731147.3821,0.001247849,-0.001247849,1
1686731147.38211,,,,,,,,,,,,,,,,,,,,,,,,,,,,
1686731147.38212,,,,,,,,,,,,,,,,,,,,,,,,,,,,
1686731147.38212,,,,,,,,,,,,,,,,,,,,1.992812991,1686731147.38212,120849.4921875,15,,,,,
1686731147.38213,0,0.068383891,0,0,0,0,0,0,1686731147.38213,0.081115956,0,9.583415439,-0.474250511,0,0.999991436,0,-0.004138605,0,0,,,,,,,,,
1686731147.4207,,,,,,,,,,,,,,,,,,,,,,,,0,1686731147.4207,0.001094512,-0.001094512,1
1686731147.42071,,,,,,,,,,,,,,,,,,,,,,,,,,,,
1686731147.42072,,,,,,,,,,,,,,,,,,,,,,,,,,,,
1686731147.42073,,,,,,,,,,,,,,,,,,,,1.99191165,1686731147.42073,120840.65625,15,,,,,
1686731147.42074,0,0.060695097,0,0,0,0,0,0,1686731147.42074,0.055960238,0,9.607905478,-0.327173765,0,0.999995924,0,-0.002855126,0,0,,,,,,,,,
1686731147.45876,,,,,,,,,,,,,,,,,,,,,,,,,,,,
1686731147.45949,,,,,,,,,,,,,,,,,,,,,,,,0,1686731147.45949,0.001027216,-0.001027216,1
1686731147.4595,,,,,,,,,,,,,,,,,,,,,,,,,,,,
1686731147.45951,,,,,,,,,,,,,,,,,,,,,,,,,,,,
1686731147.45952,,,,,,,,,,,,,,,,,,,,1.991319299,1686731147.45952,120834.84375,15,,,,,
1686731147.45953,0,0.056262922,0,0,0,0,0,0,1686731147.45953,0.033248478,0,9.622024616,-0.19438787,0,0.999998561,0,-0.001696353,0,0,,,,,,,,,
1686731147.49806,,,,,,,,,,,,,,,,,,,,,,,,0,1686731147.49806,0.00087129,-0.00087129,1
1686731147.49808,,,,,,,,,,,,,,,,,,,,,,,,,,,,
1686731147.49808,,,,,,,,,,,,,,,,,,,,,,,,,,,,
1686731147.49808,,,,,,,,,,,,,,,,,,,,1.991007924,1686731147.49808,120831.7890625,15,,,,,
1686731147.49809,0,0.047722533,0,0,0,0,0,0,1686731147.49809,0.013083244,0,9.649079367,-0.076491318,0,0.999999777,0,-0.000667513,0,0,,,,,,,,,
1686731147.53792,,,,,,,,,,,,,,,,,,,,,,,,0,1686731147.53792,0.000784781,-0.000784781,1
1686731147.53793,,,,,,,,,,,,,,,,,,,,,,,,,,,,
1686731147.53793,,,,,,,,,,,,,,,,,,,,,,,,,,,,
1686731147.53793,,,,,,,,,,,,,,,,,,,,1.990939975,1686731147.53793,120831.125,15,,,,,
1686731147.53793,0,0.04298424,0,0,0,0,0,0,1686731147.53793,-0.004468881,0,9.664070881,0.026127352,0,0.999999974,0,0.000228004,0,0,,,,,,,,,
1686731147.55823,,,,,,,,,,,,,,,,,,,,,,,,,,,,
1686731147.57821,,,,,,,,,,,,,,,,,,,,,,,,0,1686731147.57821,0.000743112,-0.000743112,1
1686731147.57823,,,,,,,,,,,,,,,,,,,,,,,,,,,,
1686731147.57823,,,,,,,,,,,,,,,,,,,,,,,,,,,,
1686731147.57824,,,,,,,,,,,,,,,,,,,,1.991090655,1686731147.57824,120832.6015625,15,,,,,
1686731147.57825,0,0.040701933,0,0,0,0,0,0,1686731147.57825,-0.020762306,0,9.671267194,0.121387081,0,0.999999439,0,0.001059302,0,0,,,,,,,,,
1686731147.61848,,,,,,,,,,,,,,,,,,,,,,,,0,1686731147.61848,0.000540802,-0.000540802,1
1686731147.61849,,,,,,,,,,,,,,,,,,,,,,,,,,,,
1686731147.6185,,,,,,,,,,,,,,,,,,,,,,,,,,,,
1686731147.6185,,,,,,,,,,,,,,,,,,,,1.991437793,1686731147.6185,120836.0078125,15,,,,,
1686731147.61851,0,0.029620955,0,0,0,0,0,0,1686731147.61851,-0.034016086,0,9.706271279,0.198875725,0,0.999998494,0,0.001735517,0,0,,,,,,,,,
1686731147.65891,,,,,,,,,,,,,,,,,,,,,,,,,,,,
1686731147.6604,,,,,,,,,,,,,,,,,,,,,,,,0,1686731147.6604,0.000443355,-0.000443355,1
1686731147.66041,,,,,,,,,,,,,,,,,,,,,,,,,,,,
1686731147.66042,,,,,,,,,,,,,,,,,,,,,,,,,,,,
1686731147.66043,,,,,,,,,,,,,,,,,,,,1.99193716,1686731147.66043,120840.90625,15,,,,,
1686731147.66044,0,0.02428355,0,0,0,0,0,0,1686731147.66044,-0.044326264,0,9.723108425,0.259154744,0,0.999997443,0,0.00226155,0,0,,,,,,,,,
1686731147.70083,,,,,,,,,,,,,,,,,,,,,,,,0,1686731147.70083,0.000282252,-0.000282252,1
1686731147.70085,,,,,,,,,,,,,,,,,,,,,,,,,,,,
1686731147.70085,,,,,,,,,,,,,,,,,,,,,,,,,,,,
1686731147.70086,,,,,,,,,,,,,,,,,,,,1.992556453,1686731147.70086,120846.9765625,15,,,,,
1686731147.70087,0,0.016205122,0,0,0,0,0,0,1686731147.70087,-0.052041222,0,9.748616724,0.304260857,0,0.999996475,0,0.002655174,0,0,,,,,,,,,
1686731147.74073,,,,,,,,,,,,,,,,,,,,,,,,0,1686731147.74073,0.00020846,-0.00020846,1
1686731147.74075,,,,,,,,,,,,,,,,,,,,,,,,,,,,
1686731147.74075,,,,,,,,,,,,,,,,,,,,,,,,,,,,
1686731147.74076,,,,,,,,,,,,,,,,,,,,1.993259668,1686731147.74076,120853.875,15,,,,,
1686731147.74077,0,0.011776908,0,0,0,0,0,0,1686731147.74077,-0.057314036,0,9.762590547,0.335088889,0,0.999995725,0,0.002924198,0,0,,,,,,,,,
1686731147.75879,,,,,,,,,,,,,,,,,,,,,,,,,,,,
1686731147.78075,,,,,,,,,,,,,,,,,,,,,,,,0,1686731147.78075,0.000172916,-0.000172916,1
1686731147.78077,,,,,,,,,,,,,,,,,,,,,,,,,,,,
1686731147.78078,,,,,,,,,,,,,,,,,,,,,,,,,,,,
1686731147.78079,,,,,,,,,,,,,,,,,,,,1.994023442,1686731147.78079,120861.3671875,15,,,,,
1686731147.78079,0,0.009643958,0,0,0,0,0,0,1686731147.78079,-0.061410538,0,9.769310713,0.359039558,0,0.999995091,0,0.003133206,0,0,,,,,,,,,
1686731147.82011,,,,,,,,,,,,,,,,,,,,,,,,0,1686731147.82011,0.00004958,-0.00004958,1
1686731147.82013,,,,,,,,,,,,,,,,,,,,,,,,,,,,
1686731147.82013,,,,,,,,,,,,,,,,,,,,,,,,,,,,
1686731147.82014,,,,,,,,,,,,,,,,,,,,1.994832039,1686731147.82014,120869.3046875,15,,,,,
1686731147.82015,0,0.002715615,0,0,0,0,0,0,1686731147.82015,-0.063678997,0,9.79120558,0.37230239,0,0.999994722,0,0.003248946,0,0,,,,,,,,,
1686731147.85901,,,,,,,,,,,,,,,,,,,,,,,,,,,,
1686731147.86075,,,,,,,,,,,,,,,,,,,,,,,,0,1686731147.86075,-0.000027647,0.000027647,1
1686731147.86077,,,,,,,,,,,,,,,,,,,,,,,,,,,,
1686731147.86078,,,,,,,,,,,,,,,,,,,,,,,,,,,,
1686731147.86078,,,,,,,,,,,,,,,,,,,,1.995656133,1686731147.86078,120877.390625,15,,,,,
1686731147.86079,0,-0.001196997,0,0,0,0,0,0,1686731147.86079,-0.063789698,0,9.803577626,0.372949618,0,0.999994704,0,0.003254594,0,0,,,,,,,,,
1686731147.9001,,,,,,,,,,,,,,,,,,,,,,,,0,1686731147.9001,-0.000107085,0.000107085,1
1686731147.90012,,,,,,,,,,,,,,,,,,,,,,,,,,,,
1686731147.90012,,,,,,,,,,,,,,,,,,,,,,,,,,,,
1686731147.90013,,,,,,,,,,,,,,,,,,,,1.996472955,1686731147.90013,120885.3984375,15,,,,,
1686731147.90014,0,-0.005865293,0,0,0,0,0,0,1686731147.90014,-0.062265997,0,9.818349873,0.364041103,0,0.999994954,0,0.003176853,0,0,,,,,,,,,
1686731147.94087,,,,,,,,,,,,,,,,,,,,,,,,0,1686731147.94087,-0.000156826,0.000156826,1
1686731147.94088,,,,,,,,,,,,,,,,,,,,,,,,,,,,
1686731147.94089,,,,,,,,,,,,,,,,,,,,,,,,,,,,
1686731147.94089,,,,,,,,,,,,,,,,,,,,1.997261167,1686731147.94089,120893.1328125,15,,,,,
1686731147.9409,0,-0.008385329,0,0,0,0,0,0,1686731147.9409,-0.059352523,0,9.826337007,0.347007126,0,0.999995415,0,0.003028204,0,0,,,,,,,,,
1686731147.9586,,,,,,,,,,,,,,,,,,,,,,,,,,,,
1686731147.98099,,,,,,,,,,,,,,,,,,,,,,,,0,1686731147.98099,-0.000177053,0.000177053,1
1686731147.981,,,,,,,,,,,,,,,,,,,,,,,,,,,,
1686731147.98101,,,,,,,,,,,,,,,,,,,,,,,,,,,,
1686731147.98102,,,,,,,,,,,,,,,,,,,,1.998007536,1686731147.98102,120900.453125,15,,,,,
1686731147.98102,0,-0.009599162,0,0,0,0,0,0,1686731147.98102,-0.055769627,0,9.830196529,0.326059336,0,0.999995952,0,0.002845401,0,0,,,,,,,,,
1686731148.0207,,,,,,,,,,,,,,,,,,,,,,,,0,1686731148.0207,-0.000225294,0.000225294,1
1686731148.02071,,,,,,,,,,,,,,,,,,,,,,,,,,,,
1686731148.02072,,,,,,,,,,,,,,,,,,,,,,,,,,,,
1686731148.02073,,,,,,,,,,,,,,,,,,,,1.998704076,1686731148.02073,120907.2890625,15,,,,,
1686731148.02074,0,-0.012105077,0,0,0,0,0,0,1686731148.02074,-0.051453577,0,9.838144537,0.300825138,0,0.999996554,0,0.002625192,0,0,,,,,,,,,
1686731148.05873,,,,,,,,,,,,,,,,,,,,,,,,,,,,
1686731148.06097,,,,,,,,,,,,,,,,,,,,,,,,0,1686731148.06096,-0.00024853,0.00024853,1
1686731148.06098,,,,,,,,,,,,,,,,,,,,,,,,,,,,
1686731148.06102,,,,,,,,,,,,,,,,,,,,,,,,,,,,
1686731148.06102,,,,,,,,,,,,,,,,,,,,1.999340057,1686731148.06102,120913.5234375,15,,,,,
1686731148.06103,0,-0.013499453,0,0,0,0,0,0,1686731148.06103,-0.046368529,0,9.842579321,0.271094993,0,0.999997202,0,0.002365748,0,0,,,,,,,,,
1686731148.09988,,,,,,,,,,,,,,,,,,,,,,,,0,1686731148.09988,-0.000263216,0.000263216,1
1686731148.09989,,,,,,,,,,,,,,,,,,,,,,,,,,,,
1686731148.0999,,,,,,,,,,,,,,,,,,,,,,,,,,,,
1686731148.0999,,,,,,,,,,,,,,,,,,,,1.999907851,1686731148.0999,120919.09375,15,,,,,
1686731148.09991,0,-0.014416931,0,0,0,0,0,0,1686731148.09991,-0.040860512,0,9.845505156,0.238892008,0,0.999997827,0,0.002084725,0,0,,,,,,,,,
1686731148.14083,,,,,,,,,,,,,,,,,,,,,,,,0,1686731148.14083,-0.000272412,0.000272412,1
1686731148.14084,,,,,,,,,,,,,,,,,,,,,,,,,,,,
1686731148.14084,,,,,,,,,,,,,,,,,,,,,,,,,,,,
1686731148.14085,,,,,,,,,,,,,,,,,,,,2.000402927,1686731148.14085,120923.953125,15,,,,,
1686731148.14085,0,-0.014882828,0,0,0,0,0,0,1686731148.14085,-0.035095542,0,9.847000793,0.20518681,0,0.999998397,0,0.001790592,0,0,,,,,,,,,
1686731148.15882,,,,,,,,,,,,,,,,,,,,,,,,,,,,
1686731148.18079,,,,,,,,,,,,,,,,,,,,,,,,0,1686731148.18079,-0.000276151,0.000276151,1
1686731148.18081,,,,,,,,,,,,,,,,,,,,,,,,,,,,
1686731148.18082,,,,,,,,,,,,,,,,,,,,,,,,,,,,
1686731148.18083,,,,,,,,,,,,,,,,,,,,2.000822783,1686731148.18083,120928.0703125,15,,,,,
1686731148.18084,0,-0.015107238,0,0,0,0,0,0,1686731148.18084,-0.029206799,0,9.84772976,0.170758038,0,0.99999889,0,0.001490144,0,0,,,,,,,,,
1686731148.22077,,,,,,,,,,,,,,,,,,,,,,,,0,1686731148.22077,-0.000259986,0.000259986,1
1686731148.22078,,,,,,,,,,,,,,,,,,,,,,,,,,,,
1686731148.22079,,,,,,,,,,,,,,,,,,,,,,,,,,,,
1686731148.2208,,,,,,,,,,,,,,,,,,,,2.001166821,1686731148.2208,120931.4453125,15,,,,,
1686731148.22081,0,-0.014318692,0,0,0,0,0,0,1686731148.22081,-0.023450109,0,9.845251624,0.137101385,0,0.999999284,0,0.001196435,0,0,,,,,,,,,
1686731148.25881,,,,,,,,,,,,,,,,,,,,,,,,,,,,
1686731148.2608,,,,,,,,,,,,,,,,,,,,,,,,0,1686731148.2608,-0.0002522,0.0002522,1
1686731148.26083,,,,,,,,,,,,,,,,,,,,,,,,,,,,
1686731148.26084,,,,,,,,,,,,,,,,,,,,,,,,,,,,
1686731148.26084,,,,,,,,,,,,,,,,,,,,2.001438141,1686731148.26084,120934.109375,15,,,,,
1686731148.26085,0,-0.013851437,0,0,0,0,0,0,1686731148.26085,-0.017951102,0,9.84378565,0.104951322,0,0.999999581,0,0.000915873,0,0,,,,,,,,,
1686731148.30086,,,,,,,,,,,,,,,,,,,,,,,,0,1686731148.30086,-0.000225927,0.000225927,1
1686731148.30088,,,,,,,,,,,,,,,,,,,,,,,,,,,,
1686731148.30088,,,,,,,,,,,,,,,,,,,,,,,,,,,,
1686731148.30089,,,,,,,,,,,,,,,,,,,,2.00164032,1686731148.30089,120936.09375,15,,,,,
1686731148.3009,0,-0.012502393,0,0,0,0,0,0,1686731148.3009,-0.012816489,0,9.839527657,0.074931727,0,0.999999786,0,0.000653903,0,0,,,,,,,,,
1686731148.34066,,,,,,,,,,,,,,,,,,,,,,,,0,1686731148.34066,-0.000213272,0.000213272,1
1686731148.34068,,,,,,,,,,,,,,,,,,,,,,,,,,,,
1686731148.34068,,,,,,,,,,,,,,,,,,,,,,,,,,,,
1686731148.34069,,,,,,,,,,,,,,,,,,,,2.001778841,1686731148.34069,120937.453125,15,,,,,
1686731148.3407,0,-0.011742993,0,0,0,0,0,0,1686731148.3407,-0.00810068,0,9.837131256,0.047360699,0,0.999999915,0,0.0004133,0,0,,,,,,,,,
1686731148.35884,,,,,,,,,,,,,,,,,,,,,,,,,,,,
1686731148.38176,,,,,,,,,,,,,,,,,,,,,,,,0,1686731148.38176,-0.000207177,0.000207177,1
1686731148.38178,,,,,,,,,,,,,,,,,,,,,,,,,,,,
1686731148.38179,,,,,,,,,,,,,,,,,,,,,,,,,,,,
1686731148.3818,,,,,,,,,,,,,,,,,,,,2.001857758,1686731148.3818,120938.2265625,15,,,,,
1686731148.38181,0,-0.01137721,0,0,0,0,0,0,1686731148.38181,-0.003586599,0,9.835977242,0.020969079,0,0.999999983,0,0.00018299,0,0,,,,,,,,,
1686731148.42039,,,,,,,,,,,,,,,,,,,,,,,,0,1686731148.42039,-0.000169594,0.000169594,1
1686731148.42041,,,,,,,,,,,,,,,,,,,,,,,,,,,,
1686731148.42042,,,,,,,,,,,,,,,,,,,,,,,,,,,,
1686731148.42043,,,,,,,,,,,,,,,,,,,,2.001880407,1686731148.42043,120938.4453125,15,,,,,
1686731148.42044,0,-0.009289022,0,0,0,0,0,0,1686731148.42044,0.000421581,0,9.829374459,-0.002464776,0,1,0,-0.000021509,0,0,,,,,,,,,
1686731148.45971,,,,,,,,,,,,,,,,,,,,,,,,,,,,
1686731148.46099,,,,,,,,,,,,,,,,,,,,,,,,0,1686731148.46099,-0.000147826,0.000147826,1
1686731148.461,,,,,,,,,,,,,,,,,,,,,,,,,,,,
1686731148.46101,,,,,,,,,,,,,,,,,,,,,,,,,,,,
1686731148.46102,,,,,,,,,,,,,,,,,,,,2.001855612,1686731148.46102,120938.203125,15,,,,,
1686731148.46103,0,-0.008096755,0,0,0,0,0,0,1686731148.46103,0.003772226,0,9.825603461,-0.022054351,0,0.999999981,0,-0.000192461,0,0,,,,,,,,,
1686731148.49997,,,,,,,,,,,,,,,,,,,,,,,,0,1686731148.49997,-0.000113218,0.000113218,1
1686731148.49999,,,,,,,,,,,,,,,,,,,,,,,,,,,,
1686731148.49999,,,,,,,,,,,,,,,,,,,,,,,,,,,,
1686731148.5,,,,,,,,,,,,,,,,,,,,2.001790524,1686731148.5,120937.5625,15,,,,,
1686731148.5,0,-0.006201191,0,0,0,0,0,0,1686731148.5,0.006523699,0,9.819607716,-0.038140864,0,0.999999945,0,-0.000332842,0,0,,,,,,,,,
1686731148.54079,,,,,,,,,,,,,,,,,,,,,,,,0,1686731148.54079,-0.000092653,0.000092653,1
1686731148.54081,,,,,,,,,,,,,,,,,,,,,,,,,,,,
1686731148.54082,,,,,,,,,,,,,,,,,,,,,,,,,,,,
1686731148.54083,,,,,,,,,,,,,,,,,,,,2.001693487,1686731148.54083,120936.6171875,15,,,,,
1686731148.54084,0,-0.005159308,0,0,0,0,0,0,1686731148.54084,0.008700575,0,9.816311301,-0.050867988,0,0.999999901,0,-0.000443907,0,0,,,,,,,,,
1686731148.55886,,,,,,,,,,,,,,,,,,,,,,,,,,,,
1686731148.58097,,,,,,,,,,,,,,,,,,,,,,,,0,1686731148.58097,-0.00008429,0.00008429,1
1686731148.58098,,,,,,,,,,,,,,,,,,,,,,,,,,,,
1686731148.58099,,,,,,,,,,,,,,,,,,,,,,,,,,,,
1686731148.58099,,,,,,,,,,,,,,,,,,,,2.001570463,1686731148.58099,120935.40625,15,,,,,
1686731148.581,0,-0.004657461,0,0,0,0,0,0,1686731148.581,0.010600682,0,9.814722451,-0.061976986,0,0.999999854,0,-0.000540851,0,0,,,,,,,,,
1686731148.61993,,,,,,,,,,,,,,,,,,,,,,,,0,1686731148.61993,-0.000051502,0.000051502,1
1686731148.61995,,,,,,,,,,,,,,,,,,,,,,,,,,,,
1686731148.61995,,,,,,,,,,,,,,,,,,,,,,,,,,,,
1686731148.61996,,,,,,,,,,,,,,,,,,,,2.001424551,1686731148.61996,120933.9765625,15,,,,,
1686731148.61997,0,-0.002820865,0,0,0,0,0,0,1686731148.61997,0.012026536,0,9.808912979,-0.07031326,0,0.999999812,0,-0.000613599,0,0,,,,,,,,,
1686731148.65861,,,,,,,,,,,,,,,,,,,,,,,,,,,,
1686731148.66063,,,,,,,,,,,,,,,,,,,,,,,,0,1686731148.66063,-0.000030971,0.000030971,1
1686731148.66064,,,,,,,,,,,,,,,,,,,,,,,,,,,,
1686731148.66064,,,,,,,,,,,,,,,,,,,,,,,,,,,,
1686731148.66066,,,,,,,,,,,,,,,,,,,,2.001264095,1686731148.66066,120932.3984375,15,,,,,
1686731148.66067,0,-0.001780707,0,0,0,0,0,0,1686731148.66067,0.012878745,0,9.805622628,-0.075295707,0,0.999999784,0,-0.000657079,0,0,,,,,,,,,
1686731148.70092,,,,,,,,,,,,,,,,,,,,,,,,0,1686731148.70092,-0.000005547,0.000005547,1
1686731148.70094,,,,,,,,,,,,,,,,,,,,,,,,,,,,
1686731148.70094,,,,,,,,,,,,,,,,,,,,,,,,,,,,
1686731148.70095,,,,,,,,,,,,,,,,,,,,2.001095057,1686731148.70095,120930.7421875,15,,,,,
1686731148.70095,0,-0.000427562,0,0,0,0,0,0,1686731148.70095,0.013272481,0,9.801343082,-0.07759769,0,0.999999771,0,-0.000677168,0,0,,,,,,,,,
1686731148.74132,,,,,,,,,,,,,,,,,,,,,,,,0,1686731148.74132,0.000006699,-0.000006699,1
1686731148.74133,,,,,,,,,,,,,,,,,,,,,,,,,,,,
1686731148.74134,,,,,,,,,,,,,,,,,,,,,,,,,,,,
1686731148.74135,,,,,,,,,,,,,,,,,,,,2.000923634,1686731148.74135,120929.0625,15,,,,,
1686731148.74136,0,0.000307304,0,0,0,0,0,0,1686731148.74136,0.013260939,0,9.799019247,-0.077530212,0,0.999999771,0,-0.000676579,0,0,,,,,,,,,
1686731148.75874,,,,,,,,,,,,,,,,,,,,,,,,,,,,
1686731148.77962,,,,,,,,,,,,,,,,,,,,,,,,0,1686731148.77962,0.000012073,-0.000012073,1
1686731148.77963,,,,,,,,,,,,,,,,,,,,,,,,,,,,
1686731148.77964,,,,,,,,,,,,,,,,,,,,,,,,,,,,
1686731148.77965,,,,,,,,,,,,,,,,,,,,2.000753403,1686731148.77965,120927.390625,15,,,,,
1686731148.77965,0,0.000661269,0,0,0,0,0,0,1686731148.77965,0.013054186,0,9.797900188,-0.076321429,0,0.999999778,0,-0.00066603,0,0,,,,,,,,,
1686731148.82013,,,,,,,,,,,,,,,,,,,,,,,,0,1686731148.82013,0.000028947,-0.000028947,1
1686731148.82014,,,,,,,,,,,,,,,,,,,,,,,,,,,,
1686731148.82015,,,,,,,,,,,,,,,,,,,,,,,,,,,,
1686731148.82016,,,,,,,,,,,,,,,,,,,,2.000587225,1686731148.82016,120925.7578125,15,,,,,
1686731148.82017,0,0.001585473,0,0,0,0,0,0,1686731148.82017,0.012592282,0,9.794978203,-0.073620902,0,0.999999794,0,-0.000642464,0,0,,,,,,,,,
1686731148.85892,,,,,,,,,,,,,,,,,,,,,,,,,,,,
1686731148.86087,,,,,,,,,,,,,,,,,,,,,,,,0,1686731148.86086,0.000039184,-0.000039184,1
1686731148.86088,,,,,,,,,,,,,,,,,,,,,,,,,,,,
1686731148.86089,,,,,,,,,,,,,,,,,,,,,,,,,,,,
1686731148.8609,,,,,,,,,,,,,,,,,,,,2.000428677,1686731148.8609,120924.203125,15,,,,,
1686731148.86092,0,0.002104133,0,0,0,0,0,0,1686731148.86091,0.011844338,0,9.793338988,-0.069248037,0,0.999999817,0,-0.000604303,0,0,,,,,,,,,
1686731148.90014,,,,,,,,,,,,,,,,,,,,,,,,0,1686731148.90014,0.000047623,-0.000047623,1
1686731148.90016,,,,,,,,,,,,,,,,,,,,,,,,,,,,
1686731148.90018,,,,,,,,,,,,,,,,,,,,,,,,,,,,
1686731148.90018,,,,,,,,,,,,,,,,,,,,2.000280857,1686731148.90018,120922.7578125,15,,,,,
1686731148.90019,0,0.002608422,0,0,0,0,0,0,1686731148.90019,0.010904219,0,9.791745379,-0.063751616,0,0.999999845,0,-0.000556338,0,0,,,,,,,,,
1686731148.94078,,,,,,,,,,,,,,,,,,,,,,,,0,1686731148.94078,0.000052907,-0.000052907,1
1686731148.94079,,,,,,,,,,,,,,,,,,,,,,,,,,,,
1686731148.94079,,,,,,,,,,,,,,,,,,,,,,,,,,,,
1686731148.9408,,,,,,,,,,,,,,,,,,,,2.000146151,1686731148.9408,120921.4375,15,,,,,
1686731148.94082,0,0.002876137,0,0,0,0,0,0,1686731148.94082,0.009816454,0,9.790899939,-0.057391989,0,0.999999875,0,-0.00050084,0,0,,,,,,,,,
1686731148.95927,,,,,,,,,,,,,,,,,,,,,,,,,,,,
1686731148.9801,,,,,,,,,,,,,,,,,,,,,,,,0,1686731148.9801,0.000054865,-0.000054865,1
1686731148.98012,,,,,,,,,,,,,,,,,,,,,,,,,,,,
1686731148.98013,,,,,,,,,,,,,,,,,,,,,,,,,,,,
1686731148.98013,,,,,,,,,,,,,,,,,,,,2.000025988,1686731148.98013,120920.2578125,15,,,,,
1686731148.98014,0,0.003005089,0,0,0,0,0,0,1686731148.98014,0.008657573,0,9.790493251,-0.050616578,0,0.999999902,0,-0.000441713,0,0,,,,,,,,,
1686731149.02013,,,,,,,,,,,,,,,,,,,,,,,,0,1686731149.02013,0.000056262,-0.000056262,1
1686731149.02015,,,,,,,,,,,,,,,,,,,,,,,,,,,,
1686731149.02016,,,,,,,,,,,,,,,,,,,,,,,,,,,,
1686731149.02017,,,,,,,,,,,,,,,,,,,,1.999920964,1686731149.02017,120919.2265625,15,,,,,
1686731149.02018,0,0.003081585,0,0,0,0,0,0,1686731149.02018,0.007461362,0,9.790252331,-0.043622918,0,0.999999928,0,-0.000380682,0,0,,,,,,,,,
1686731149.05886,,,,,,,,,,,,,,,,,,,,,,,,,,,,
1686731149.06064,,,,,,,,,,,,,,,,,,,,,,,,0,1686731149.06064,0.000057017,-0.000057017,1
1686731149.06065,,,,,,,,,,,,,,,,,,,,,,,,,,,,
1686731149.06066,,,,,,,,,,,,,,,,,,,,,,,,,,,,
1686731149.06066,,,,,,,,,,,,,,,,,,,,1.999831438,1686731149.06066,120918.34375,15,,,,,
1686731149.06067,0,0.003119834,0,0,0,0,0,0,1686731149.06067,0.006244057,0,9.790132228,-0.03650593,0,0.999999949,0,-0.000318574,0,0,,,,,,,,,
1686731149.10073,,,,,,,,,,,,,,,,,,,,,,,,0,1686731149.10073,0.000054315,-0.000054315,1
1686731149.10075,,,,,,,,,,,,,,,,,,,,,,,,,,,,
1686731149.10075,,,,,,,,,,,,,,,,,,,,,,,,,,,,
1686731149.10076,,,,,,,,,,,,,,,,,,,,1.999757648,1686731149.10076,120917.625,15,,,,,
1686731149.10077,0,0.002988083,0,0,0,0,0,0,1686731149.10077,0.005048694,0,9.790549551,-0.029517231,0,0.999999967,0,-0.000257586,0,0,,,,,,,,,
1686731149.14067,,,,,,,,,,,,,,,,,,,,,,,,0,1686731149.14067,0.000053013,-0.000053013,1
1686731149.14069,,,,,,,,,,,,,,,,,,,,,,,,,,,,
1686731149.1407,,,,,,,,,,,,,,,,,,,,,,,,,,,,
1686731149.1407,,,,,,,,,,,,,,,,,,,,1.999698997,1686731149.1407,120917.046875,15,,,,,
1686731149.14071,0,0.002909978,0,0,0,0,0,0,1686731149.14071,0.003896406,0,9.790797067,-0.022780369,0,0.99999998,0,-0.000198796,0,0,,,,,,,,,
1686731149.15893,,,,,,,,,,,,,,,,,,,,,,,,,,,,
1686731149.18069,,,,,,,,,,,,,,,,,,,,,,,,0,1686731149.18069,0.000052386,-0.000052386,1
1686731149.1807,,,,,,,,,,,,,,,,,,,,,,,,,,,,
1686731149.1807,,,,,,,,,,,,,,,,,,,,,,,,,,,,
1686731149.18071,,,,,,,,,,,,,,,,,,,,1.999655128,1686731149.18071,120916.6171875,15,,,,,
1686731149.18072,0,0.002872357,0,0,0,0,0,0,1686731149.18071,0.002764866,0,9.790916419,-0.016164811,0,0.99999999,0,-0.000141065,0,0,,,,,,,,,
1686731149.22104,,,,,,,,,,,,,,,,,,,,,,,,0,1686731149.22104,0.000044927,-0.000044927,1
1686731149.22106,,,,,,,,,,,,,,,,,,,,,,,,,,,,
1686731149.22106,,,,,,,,,,,,,,,,,,,,,,,,,,,,
1686731149.22107,,,,,,,,,,,,,,,,,,,,1.999625564,1686731149.22107,120916.328125,15,,,,,
1686731149.22107,0,0.002497074,0,0,0,0,0,0,1686731149.22107,0.001719671,0,9.792103407,-0.010054072,0,0.999999996,0,-0.000087738,0,0,,,,,,,,,
1686731149.25872,,,,,,,,,,,,,,,,,,,,,,,,,,,,
1686731149.26109,,,,,,,,,,,,,,,,,,,,,,,,0,1686731149.26109,0.000041335,-0.000041335,1
1686731149.26111,,,,,,,,,,,,,,,,,,,,,,,,,,,,
1686731149.26111,,,,,,,,,,,,,,,,,,,,,,,,,,,,
1686731149.26112,,,,,,,,,,,,,,,,,,,,1.999608636,1686731149.26112,120916.1640625,15,,,,,
1686731149.26113,0,0.002281483,0,0,0,0,0,0,1686731149.26113,0.000793375,0,9.792785285,-0.004638474,0,0.999999999,0,-0.000040478,0,0,,,,,,,,,
1686731149.30008,,,,,,,,,,,,,,,,,,,,,,,,0,1686731149.30008,0.000034543,-0.000034543,1
1686731149.3001,,,,,,,,,,,,,,,,,,,,,,,,,,,,
1686731149.3001,,,,,,,,,,,,,,,,,,,,,,,,,,,,
1686731149.30012,,,,,,,,,,,,,,,,,,,,1.999603152,1686731149.30012,120916.109375,15,,,,,
1686731149.30013,0,0.001891997,0,0,0,0,0,0,1686731149.30013,-0.000014588,0,9.794016981,0.00008529,0,1,0,0.000000744,0,0,,,,,,,,,
1686731149.33996,,,,,,,,,,,,,,,,,,,,,,,,0,1686731149.33996,0.000030609,-0.000030609,1
1686731149.33997,,,,,,,,,,,,,,,,,,,,,,,,,,,,
1686731149.33997,,,,,,,,,,,,,,,,,,,,,,,,,,,,
1686731149.33998,,,,,,,,,,,,,,,,,,,,1.999607325,1686731149.33998,120916.1484375,15,,,,,
1686731149.33999,0,0.001676538,0,0,0,0,0,0,1686731149.33999,-0.000703726,0,9.794698297,0.004114341,0,0.999999999,0,0.000035904,0,0,,,,,,,,,
1686731149.35868,,,,,,,,,,,,,,,,,,,,,,,,,,,,
1686731149.38,,,,,,,,,,,,,,,,,,,,,,,,0,1686731149.38,0.000028714,-0.000028714,1
1686731149.38001,,,,,,,,,,,,,,,,,,,,,,,,,,,,
1686731149.38002,,,,,,,,,,,,,,,,,,,,,,,,,,,,
1686731149.38002,,,,,,,,,,,,,,,,,,,,1.99962008,1686731149.38002,120916.2734375,15,,,,,
1686731149.38006,0,0.001572757,0,0,0,0,0,0,1686731149.38006,-0.001335629,0,9.795026414,0.007808768,0,0.999999998,0,0.000068144,0,0,,,,,,,,,
1686731149.42014,,,,,,,,,,,,,,,,,,,,,,,,0,1686731149.42014,0.00002073,-0.00002073,1
1686731149.42015,,,,,,,,,,,,,,,,,,,,,,,,,,,,
1686731149.42016,,,,,,,,,,,,,,,,,,,,,,,,,,,,
1686731149.42017,,,,,,,,,,,,,,,,,,,,1.999640465,1686731149.42017,120916.46875,15,,,,,
1686731149.42018,0,0.001135408,0,0,0,0,0,0,1686731149.42018,-0.001857157,0,9.796409348,0.010857881,0,0.999999996,0,0.000094753,0,0,,,,,,,,,
1686731149.45892,,,,,,,,,,,,,,,,,,,,,,,,,,,,
1686731149.4609,,,,,,,,,,,,,,,,,,,,,,,,0,1686731149.4609,0.000015826,-0.000015826,1
1686731149.46092,,,,,,,,,,,,,,,,,,,,,,,,,,,,
1686731149.46093,,,,,,,,,,,,,,,,,,,,,,,,,,,,
1686731149.46094,,,,,,,,,,,,,,,,,,,,1.999666691,1686731149.46094,120916.7265625,15,,,,,
1686731149.46095,0,0.000886977,0,0,0,0,0,0,1686731149.46094,-0.002241674,0,9.797194878,0.013105964,0,0.999999993,0,0.000114371,0,0,,,,,,,,,
1686731149.49936,,,,,,,,,,,,,,,,,,,,,,,,0,1686731149.49936,0.000009812,-0.000009812,1
1686731149.49938,,,,,,,,,,,,,,,,,,,,,,,,,,,,
1686731149.49938,,,,,,,,,,,,,,,,,,,,,,,,,,,,
1686731149.49939,,,,,,,,,,,,,,,,,,,,1.999697328,1686731149.49939,120917.03125,15,,,,,
1686731149.4994,0,0.000537426,0,0,0,0,0,0,1686731149.4994,-0.002511053,0,9.798300187,0.014680893,0,0.999999992,0,0.000128115,0,0,,,,,,,,,
1686731149.53891,,,,,,,,,,,,,,,,,,,,,,,,0,1686731149.53891,0.000006329,-0.000006329,1
1686731149.53891,,,,,,,,,,,,,,,,,,,,,,,,,,,,
1686731149.53892,,,,,,,,,,,,,,,,,,,,,,,,,,,,
1686731149.53892,,,,,,,,,,,,,,,,,,,,1.999730706,1686731149.53892,120917.359375,15,,,,,
