__time,/riptide_1/imu_broadcaster/imu_status/angular_velocity/x,/riptide_1/imu_broadcaster/imu_status/angular_velocity/y,/riptide_1/imu_broadcaster/imu_status/angular_velocity/z,/riptide_1/imu_broadcaster/imu_status/header/stamp,/riptide_1/imu_broadcaster/imu_status/linear_acceleration/x,/riptide_1/imu_broadcaster/imu_status/linear_acceleration/y,/riptide_1/imu_broadcaster/imu_status/linear_acceleration/z,/riptide_1/pressure_broadcaster/pressure_status/altitude,/riptide_1/pressure_broadcaster/pressure_status/depth,/riptide_1/pressure_broadcaster/pressure_status/header/stamp,/riptide_1/pressure_broadcaster/pressure_status/pressure,/riptide_1/pressure_broadcaster/pressure_status/temperature,/riptide_1/tail_broadcaster/actuators_status/d_fin,/riptide_1/tail_broadcaster/actuators_status/header/stamp,/riptide_1/tail_broadcaster/actuators_status/p_fin,/riptide_1/tail_broadcaster/actuators_status/s_fin,/riptide_1/tail_broadcaster/actuators_status/thruster,/riptide_1/tail_broadcaster/multiplexer_status/automatic,/riptide_1/tail_broadcaster/multiplexer_status/header/stamp,/riptide_1/tail_broadcaster/multiplexer_status/remaining_time,/riptide_1/tail_broadcaster/rc_status/axes.0,/riptide_1/tail_broadcaster/rc_status/axes.1,/riptide_1/tail_broadcaster/rc_status/axes.2,/riptide_1/tail_broadcaster/rc_status/axes.3,/riptide_1/tail_broadcaster/rc_status/axes.4,/riptide_1/tail_broadcaster/rc_status/axes.5,/riptide_1/tail_broadcaster/rc_status/header/stamp,pitch_from_accel
1684869329.78149,,,,,,,,53.561992645,-0.063757166,1684869329.78149,100360,18.239999771,,,,,,,,,,,,,,,,
1684869329.78151,,,,,,,,,,,,,0,1684869329.78151,0,0,0,,,,,,,,,,,
1684869329.78152,,,,,,,,,,,,,,,,,,,,,-1,0.575999975,0,0.008,0.136000007,-0.143999994,1684869329.78152,
1684869329.78152,,,,,,,,,,,,,,,,,,0,1684869329.78152,0,,,,,,,,
1684869329.78153,-0.00235749,0.00116344,-0.00119484,1684869329.78153,-0.48116371,-0.518208325,9.687821388,,,,,,,,,,,,,,,,,,,,,-0.049067976
1684869329.82162,,,,,,,,41.821990967,-0.04981029,1684869329.82162,100500,18.239999771,,,,,,,,,,,,,,,,
1684869329.82164,,,,,,,,,,,,,0,1684869329.82164,0,0,0,,,,,,,,,,,
1684869329.82165,,,,,,,,,,,,,,,,,,,,,-1,0.592000008,0,0.008,0.136000007,-0.143999994,1684869329.82165,
1684869329.82166,,,,,,,,,,,,,,,,,,0,1684869329.82166,0,,,,,,,,
1684869329.82167,-0.00100078,0.00091813,-0.00102159,1684869329.82166,-0.514752507,-0.626759887,9.643966675,,,,,,,,,,,,,,,,,,,,,-0.052496332
1684869329.86321,,,,,,,,53.561992645,-0.063757166,1684869329.86321,100360,18.239999771,,,,,,,,,,,,,,,,
1684869329.86323,,,,,,,,,,,,,0,1684869329.86323,0,0,0,,,,,,,,,,,
1684869329.86324,,,,,,,,,,,,,,,,,,,,,-1,0.600000024,0,0.008,0.128000006,-0.143999994,1684869329.86324,
1684869329.86325,,,,,,,,,,,,,,,,,,0,1684869329.86325,0,,,,,,,,
1684869329.86327,0.00046183,0.00056076,-0.00083819,1684869329.86327,-0.535767198,-0.708898425,9.617219925,,,,,,,,,,,,,,,,,,,,,-0.05464158
1684869329.90272,,,,,,,,53.561992645,-0.063757166,1684869329.90272,100360,18.229999542,,,,,,,,,,,,,,,,
1684869329.90273,,,,,,,,,,,,,0,1684869329.90273,0,0,0,,,,,,,,,,,
1684869329.90274,,,,,,,,,,,,,,,,,,,,,-1,0.592000008,0.008,0,0.136000007,-0.143999994,1684869329.90274,
1684869329.90275,,,,,,,,,,,,,,,,,,0,1684869329.90275,0,,,,,,,,
1684869329.90276,0.00191508,0.00021796,-0.00057589,1684869329.90276,-0.534757733,-0.733401895,9.629533768,,,,,,,,,,,,,,,,,,,,,-0.054538525
1684869329.94203,,,,,,,,53.561992645,-0.063757166,1684869329.94203,100360,18.239999771,,,,,,,,,,,,,,,,
1684869329.94205,,,,,,,,,,,,,0,1684869329.94205,0,0,0,,,,,,,,,,,
1684869329.94207,,,,,,,,,,,,,,,,,,,,,-1,0.600000024,0,0.008,0.128000006,-0.143999994,1684869329.94207,
1684869329.94207,,,,,,,,,,,,,,,,,,0,1684869329.94207,0,,,,,,,,
1684869329.94208,0.00329912,-0.00006853,-0.00029077,1684869329.94208,-0.544764936,-0.705456138,9.671774864,,,,,,,,,,,,,,,,,,,,,-0.055560175
1684869329.98209,,,,,,,,53.561992645,-0.063757166,1684869329.98209,100360,18.239999771,,,,,,,,,,,,,,,,
1684869329.98211,,,,,,,,,,,,,0,1684869329.98211,0,0,0,,,,,,,,,,,
1684869329.98212,,,,,,,,,,,,,,,,,,,,,-1,0.592000008,0,0.008,0.136000007,-0.143999994,1684869329.98212,
1684869329.98213,,,,,,,,,,,,,,,,,,0,1684869329.98213,0,,,,,,,,
1684869329.98214,0.00448878,-0.00030737,-0.00002918,1684869329.98214,-0.542898238,-0.595535398,9.728898048,,,,,,,,,,,,,,,,,,,,,-0.055369596
1684869330.02168,,,,,,,,41.821990967,-0.04981029,1684869330.02168,100500,18.239999771,,,,,,,,,,,,,,,,
1684869330.0217,,,,,,,,,,,,,0,1684869330.0217,0,0,0,,,,,,,,,,,
1684869330.02171,,,,,,,,,,,,,,,,,,,,,-1,0.600000024,0,0.008,0.128000006,-0.128000006,1684869330.02171,
1684869330.02172,,,,,,,,,,,,,,,,,,0,1684869330.02172,0,,,,,,,,
1684869330.02172,0.0054242,-0.00042375,0.00022225,1684869330.02172,-0.505475581,-0.451251626,9.812020302,,,,,,,,,,,,,,,,,,,,,-0.05154939
1684869330.0629,,,,,,,,53.561992645,-0.063757166,1684869330.0629,100360,18.229999542,,,,,,,,,,,,,,,,
1684869330.06292,,,,,,,,,,,,,0,1684869330.06292,0,0,0,,,,,,,,,,,
1684869330.06293,,,,,,,,,,,,,,,,,,,,,-1,0.592000008,0,0.008,0.136000007,-0.143999994,1684869330.06293,
1684869330.06294,,,,,,,,,,,,,,,,,,0,1684869330.06294,0,,,,,,,,
1684869330.06295,0.00601702,-0.00046834,0.00042679,1684869330.06295,-0.475073069,-0.227194533,9.855426788,,,,,,,,,,,,,,,,,,,,,-0.048446377
1684869330.10222,,,,,,,,41.821990967,-0.04981029,1684869330.10222,100500,18.229999542,,,,,,,,,,,,,,,,
1684869330.10224,,,,,,,,,,,,,0,1684869330.10223,0,0,0,,,,,,,,,,,
1684869330.10225,,,,,,,,,,,,,,,,,,,,,-1,0.600000024,0,0.008,0.128000006,-0.143999994,1684869330.10225,
1684869330.10226,,,,,,,,,,,,,,,,,,0,1684869330.10225,0,,,,,,,,
1684869330.10226,0.00626724,-0.00044587,0.0005752,1684869330.10226,-0.484850764,-0.02768562,9.936513901,,,,,,,,,,,,,,,,,,,,,-0.049444279
1684869330.1419,,,,,,,,53.561992645,-0.063757166,1684869330.1419,100360,18.239999771,,,,,,,,,,,,,,,,
1684869330.14192,,,,,,,,,,,,,0,1684869330.14192,0,0,0,,,,,,,,,,,
1684869330.14193,,,,,,,,,,,,,,,,,,,,,-1,0.592000008,-0.008,0.008,0.128000006,-0.143999994,1684869330.14193,
1684869330.14194,,,,,,,,,,,,,,,,,,0,1684869330.14194,0,,,,,,,,
1684869330.14195,0.00622573,-0.00037975,0.00070018,1684869330.14195,-0.410404801,0.161543846,9.980619431,,,,,,,,,,,,,,,,,,,,,-0.041847565
1684869330.18163,,,,,,,,53.561992645,-0.063757166,1684869330.18163,100360,18.239999771,,,,,,,,,,,,,,,,
1684869330.18165,,,,,,,,,,,,,0,1684869330.18165,0,0,0,,,,,,,,,,,
1684869330.18166,,,,,,,,,,,,,,,,,,,,,-1,0.592000008,0,0.008,0.136000007,-0.143999994,1684869330.18166,
1684869330.18167,,,,,,,,,,,,,,,,,,0,1684869330.18167,0,,,,,,,,
1684869330.18168,0.00583219,-0.00025101,0.00076902,1684869330.18168,-0.38286075,0.30776602,10.025416374,,,,,,,,,,,,,,,,,,,,,-0.039037514
1684869330.22161,,,,,,,,41.821990967,-0.04981029,1684869330.22161,100500,18.239999771,,,,,,,,,,,,,,,,
1684869330.22163,,,,,,,,,,,,,0,1684869330.22163,0,0,0,,,,,,,,,,,
1684869330.22165,,,,,,,,,,,,,,,,,,,,,-1,0.592000008,0,0.008,0.136000007,-0.151999995,1684869330.22164,
1684869330.22165,,,,,,,,,,,,,,,,,,0,1684869330.22165,0,,,,,,,,
1684869330.22166,0.00510501,-0.00013905,0.00078248,1684869330.22166,-0.353747636,0.436834484,10.070288658,,,,,,,,,,,,,,,,,,,,,-0.036067721
1684869330.26114,,,,,,,,53.561992645,-0.063757166,1684869330.26114,100360,18.219999313,,,,,,,,,,,,,,,,
1684869330.26116,,,,,,,,,,,,,0,1684869330.26116,0,0,0,,,,,,,,,,,
1684869330.26117,,,,,,,,,,,,,,,,,,,,,-1,0.600000024,0,0,0.136000007,-0.143999994,1684869330.26117,
1684869330.26118,,,,,,,,,,,,,,,,,,0,1684869330.26118,0,,,,,,,,
1684869330.26119,0.00420606,-0.00003523,0.00075421,1684869330.26119,-0.33876887,0.548276722,10.070144653,,,,,,,,,,,,,,,,,,,,,-0.034539882
1684869330.30249,,,,,,,,41.821990967,-0.04981029,1684869330.30249,100500,18.229999542,,,,,,,,,,,,,,,,
1684869330.30251,,,,,,,,,,,,,0,1684869330.30251,0,0,0,,,,,,,,,,,
1684869330.30252,,,,,,,,,,,,,,,,,,,,,-1,0.592000008,0,0.008,0.136000007,-0.143999994,1684869330.30252,
1684869330.30253,,,,,,,,,,,,,,,,,,0,1684869330.30253,0,,,,,,,,
1684869330.30254,0.0032193,0.00006886,0.00069349,1684869330.30254,-0.34321028,0.551361024,10.051399231,,,,,,,,,,,,,,,,,,,,,-0.034992898
1684869330.34299,,,,,,,,41.821990967,-0.04981029,1684869330.34299,100500,18.229999542,,,,,,,,,,,,,,,,
1684869330.343,,,,,,,,,,,,,0,1684869330.343,0,0,0,,,,,,,,,,,
1684869330.34302,,,,,,,,,,,,,,,,,,,,,-1,0.592000008,0,0.008,0.136000007,-0.143999994,1684869330.34302,
1684869330.34302,,,,,,,,,,,,,,,,,,0,1684869330.34302,0,,,,,,,,
1684869330.34303,0.00228317,0.00013082,0.00062377,1684869330.34303,-0.344540089,0.573274612,10.000638008,,,,,,,,,,,,,,,,,,,,,-0.035128538
1684869330.38268,,,,,,,,41.821990967,-0.04981029,1684869330.38268,100500,18.229999542,,,,,,,,,,,,,,,,
1684869330.3827,,,,,,,,,,,,,0,1684869330.3827,0,0,0,,,,,,,,,,,
1684869330.38271,,,,,,,,,,,,,,,,,,,,,-1,0.600000024,0,0.008,0.136000007,-0.151999995,1684869330.38271,
1684869330.38272,,,,,,,,,,,,,,,,,,0,1684869330.38272,0,,,,,,,,
1684869330.38273,0.00141655,0.00016413,0.0005264,1684869330.38273,-0.360913157,0.558920741,9.9498806,,,,,,,,,,,,,,,,,,,,,-0.036798637
1684869330.42153,,,,,,,,41.821990967,-0.04981029,1684869330.42153,100500,18.239999771,,,,,,,,,,,,,,,,
1684869330.42155,,,,,,,,,,,,,0,1684869330.42155,0,0,0,,,,,,,,,,,
1684869330.42156,,,,,,,,,,,,,,,,,,,,,-1,0.600000024,0,0.008,0.128000006,-0.136000007,1684869330.42156,
1684869330.42157,,,,,,,,,,,,,,,,,,0,1684869330.42157,0,,,,,,,,
1684869330.42158,0.00060542,0.00017368,0.00039197,1684869330.42158,-0.384175926,0.565745115,9.892560959,,,,,,,,,,,,,,,,,,,,,-0.039171681
1684869330.46161,,,,,,,,41.821990967,-0.04981029,1684869330.46161,100500,18.229999542,,,,,,,,,,,,,,,,
1684869330.46163,,,,,,,,,,,,,0,1684869330.46163,0,0,0,,,,,,,,,,,
1684869330.46165,,,,,,,,,,,,,,,,,,,,,-1,0.592000008,0,0.008,0.136000007,-0.143999994,1684869330.46165,
1684869330.46166,,,,,,,,,,,,,,,,,,0,1684869330.46166,0,,,,,,,,
1684869330.46167,-0.00015945,0.00015956,0.00023913,1684869330.46167,-0.404958487,0.603913009,9.811215401,,,,,,,,,,,,,,,,,,,,,-0.041291905
1684869330.50208,,,,,,,,41.821990967,-0.04981029,1684869330.50208,100500,18.239999771,,,,,,,,,,,,,,,,
1684869330.5021,,,,,,,,,,,,,0,1684869330.5021,0,0,0,,,,,,,,,,,
1684869330.50211,,,,,,,,,,,,,,,,,,,,,-1,0.600000024,0,0.008,0.128000006,-0.143999994,1684869330.50211,
1684869330.50212,,,,,,,,,,,,,,,,,,0,1684869330.50211,0,,,,,,,,
1684869330.50213,-0.00081308,0.00012106,-0.00002022,1684869330.50212,-0.404203027,0.610426486,9.793855667,,,,,,,,,,,,,,,,,,,,,-0.04121483
1684869330.54274,,,,,,,,53.561992645,-0.063757166,1684869330.54274,100360,18.239999771,,,,,,,,,,,,,,,,
1684869330.54276,,,,,,,,,,,,,0,1684869330.54276,0,0,0,,,,,,,,,,,
1684869330.54277,,,,,,,,,,,,,,,,,,,,,-1,0.592000008,0,0.008,0.136000007,-0.143999994,1684869330.54277,
1684869330.54278,,,,,,,,,,,,,,,,,,0,1684869330.54278,0,,,,,,,,
1684869330.54279,-0.00192652,-0.00042316,-0.00029789,1684869330.54279,-0.51249218,0.402818054,9.189178467,,,,,,,,,,,,,,,,,,,,,-0.052265605
1684869330.58202,,,,,,,,41.821990967,-0.04981029,1684869330.58202,100500,18.229999542,,,,,,,,,,,,,,,,
1684869330.58204,,,,,,,,,,,,,0,1684869330.58204,0,0,0,,,,,,,,,,,
1684869330.58205,,,,,,,,,,,,,,,,,,,,,-1,0.600000024,0,0.008,0.128000006,-0.143999994,1684869330.58205,
1684869330.58206,,,,,,,,,,,,,,,,,,0,1684869330.58206,0,,,,,,,,
1684869330.58207,-0.00428939,-0.00060989,-0.00056548,1684869330.58207,-0.440543592,0.585997999,9.683252335,,,,,,,,,,,,,,,,,,,,,-0.044922712
1684869330.62194,,,,,,,,53.561992645,-0.063757166,1684869330.62194,100360,18.229999542,,,,,,,,,,,,,,,,
1684869330.62196,,,,,,,,,,,,,0,1684869330.62196,0,0,0,,,,,,,,,,,
1684869330.62197,,,,,,,,,,,,,,,,,,,,,-1,-1,0.008,0,0.136000007,-0.143999994,1684869330.62197,
1684869330.62198,,,,,,,,,,,,,,,,,,1,1684869330.62198,59.999000549,,,,,,,,
1684869330.62199,-0.00470174,-0.00064641,-0.00081598,1684869330.62199,-0.441070229,0.523400128,9.868711472,,,,,,,,,,,,,,,,,,,,,-0.044976449
1684869330.66165,,,,,,,,53.561992645,-0.063757166,1684869330.66165,100360,18.229999542,,,,,,,,,,,,,,,,
1684869330.66167,,,,,,,,,,,,,0,1684869330.66167,0,0,0,,,,,,,,,,,
1684869330.66168,,,,,,,,,,,,,,,,,,,,,-1,-1,0,0.008,0.136000007,-0.143999994,1684869330.66168,
1684869330.66168,,,,,,,,,,,,,,,,,,1,1684869330.66168,59.951999664,,,,,,,,
1684869330.6617,-0.00491933,-0.0006603,-0.00103885,1684869330.6617,-0.406192392,0.404915154,9.926323891,,,,,,,,,,,,,,,,,,,,,-0.041417793
1684869330.7024,,,,,,,,41.821990967,-0.04981029,1684869330.7024,100500,18.239999771,,,,,,,,,,,,,,,,
1684869330.70242,,,,,,,,,,,,,0,1684869330.70242,0.442964554,-0.444535375,0.5,,,,,,,,,,,
1684869330.70243,,,,,,,,,,,,,,,,,,,,,-1,-1,0,0.008,0.136000007,-0.143999994,1684869330.70243,
1684869330.70243,,,,,,,,,,,,,,,,,,1,1684869330.70243,59.903999329,,,,,,,,
1684869330.70244,-0.00509987,-0.00134115,-0.00099128,1684869330.70244,-0.468344033,-0.084222488,9.335232735,,,,,,,,,,,,,,,,,,,,,-0.047759646
1684869330.74247,,,,,,,,,,,,,,,,,,,,,,,,,,,,
1684869330.74787,,,,,,,,41.821990967,-0.04981029,1684869330.74787,100500,18.239999771,,,,,,,,,,,,,,,,
1684869330.74789,,,,,,,,,,,,,0,1684869330.74789,0.442964554,-0.444535375,0.5,,,,,,,,,,,
1684869330.7479,,,,,,,,,,,,,,,,,,,,,-1,-1,0.008,0,0.136000007,-0.143999994,1684869330.7479,
1684869330.74791,,,,,,,,,,,,,,,,,,1,1684869330.74791,59.856998444,,,,,,,,
1684869330.74792,-0.00512517,-0.00168461,-0.0009977,1684869330.74792,-0.373624265,0.213291466,9.784090042,,,,,,,,,,,,,,,,,,,,,-0.038095275
1684869330.78314,,,,,,,,53.561992645,-0.063757166,1684869330.78314,100360,18.229999542,,,,,,,,,,,,,,,,
1684869330.78316,,,,,,,,,,,,,0,1684869330.78316,0.442964554,-0.444535375,0.5,,,,,,,,,,,
1684869330.78317,,,,,,,,,,,,,,,,,,,,,-1,-1,0,0.008,0.128000006,-0.143999994,1684869330.78317,
1684869330.78318,,,,,,,,,,,,,,,,,,1,1684869330.78318,59.833999634,,,,,,,,
1684869330.78319,-0.0048128,-0.0021368,-0.00093834,1684869330.78319,-0.378847867,0.095962033,9.610222816,,,,,,,,,,,,,,,,,,,,,-0.038628145
1684869330.82273,,,,,,,,53.561992645,-0.063757166,1684869330.82273,100360,18.219999313,,,,,,,,,,,,,,,,
1684869330.82274,,,,,,,,,,,,,0,1684869330.82274,0.444535375,-0.446106166,0.5,,,,,,,,,,,
1684869330.82275,,,,,,,,,,,,,,,,,,,,,-1,-1,0,0.008,0.136000007,-0.143999994,1684869330.82275,
1684869330.82276,,,,,,,,,,,,,,,,,,1,1684869330.82276,59.785999298,,,,,,,,
1684869330.82277,-0.00641555,-0.00262658,-0.00093808,1684869330.82277,-0.172459334,0.15170826,9.097084999,,,,,,,,,,,,,,,,,,,,,-0.017580858
1684869330.84285,,,,,,,,,,,,,,,,,,,,,,,,,,,,
1684869330.86204,,,,,,,,41.821990967,-0.04981029,1684869330.86204,100500,18.239999771,,,,,,,,,,,,,,,,
1684869330.86206,,,,,,,,,,,,,0,1684869330.86205,0.444535375,-0.446106166,0.5,,,,,,,,,,,
1684869330.86207,,,,,,,,,,,,,,,,,,,,,-1,-1,0,0.008,0.128000006,-0.143999994,1684869330.86206,
1684869330.86207,,,,,,,,,,,,,,,,,,1,1684869330.86207,59.738998413,,,,,,,,
1684869330.86208,-0.01180512,-0.00298451,-0.001197,1684869330.86208,-0.151696697,-0.235373423,9.889479637,,,,,,,,,,,,,,,,,,,,,-0.015464092
1684869330.90179,,,,,,,,41.821990967,-0.04981029,1684869330.90179,100500,18.239999771,,,,,,,,,,,,,,,,
1684869330.90183,,,,,,,,,,,,,0,1684869330.90183,0.444535375,-0.446106166,0.5,,,,,,,,,,,
1684869330.90184,,,,,,,,,,,,,,,,,,,,,-1,-1,0.008,0,0.136000007,-0.143999994,1684869330.90184,
1684869330.90185,,,,,,,,,,,,,,,,,,1,1684869330.90185,59.715000153,,,,,,,,
1684869330.90186,-0.016314261,-0.00338012,-0.00130739,1684869330.90186,-0.255147636,-0.669004738,9.54818821,,,,,,,,,,,,,,,,,,,,,-0.026011867
1684869330.94126,,,,,,,,,,,,,,,,,,,,,,,,,,,,
1684869330.94248,,,,,,,,17.544509888,-0.020920321,1684869330.94248,100790,18.239999771,,,,,,,,,,,,,,,,
1684869330.9425,,,,,,,,,,,,,0,1684869330.9425,0.425685793,-0.427256614,0.5,,,,,,,,,,,
1684869330.94251,,,,,,,,,,,,,,,,,,,,,-1,-1,0.016000001,0.008,0.136000007,-0.143999994,1684869330.94251,
1684869330.94252,,,,,,,,,,,,,,,,,,1,1684869330.94252,59.667999268,,,,,,,,
1684869330.94253,-0.016377199,-0.00370222,-0.00096074,1684869330.94253,-0.29442969,-1.219957232,9.461636543,,,,,,,,,,,,,,,,,,,,,-0.030017728
1684869330.98304,,,,,,,,16.708433151,-0.019924115,1684869330.98304,100800,18.229999542,,,,,,,,,,,,,,,,
1684869330.98307,,,,,,,,,,,,,0,1684869330.98307,0.430398196,-0.431968987,0.5,,,,,,,,,,,
1684869330.98308,,,,,,,,,,,,,,,,,,,,,-1,-1,0.008,0,0.136000007,-0.143999994,1684869330.98308,
1684869330.98309,,,,,,,,,,,,,,,,,,1,1684869330.98309,59.620998383,,,,,,,,
1684869330.9831,-0.01564757,-0.00400515,-0.00038232,1684869330.9831,-0.446687996,-1.750192881,9.503035545,,,,,,,,,,,,,,,,,,,,,-0.045549694
1684869331.02263,,,,,,,,16.708433151,-0.019924115,1684869331.02263,100800,18.229999542,,,,,,,,,,,,,,,,
1684869331.02265,,,,,,,,,,,,,0,1684869331.02265,0.430398196,-0.431968987,0.5,,,,,,,,,,,
1684869331.02268,,,,,,,,,,,,,,,,,,,,,-1,-1,0,0.008,0.128000006,-0.143999994,1684869331.02268,
1684869331.02269,,,,,,,,,,,,,,,,,,1,1684869331.02269,59.597999573,,,,,,,,
1684869331.0227,-0.0159334,-0.00433406,0.00009931,1684869331.0227,0.133654326,-2.28254962,9.46452713,,,,,,,,,,,,,,,,,,,,,0.013624716
1684869331.04164,,,,,,,,,,,,,,,,,,,,,,,,,,,,
1684869331.06136,,,,,,,,17.544509888,-0.020920321,1684869331.06136,100790,18.239999771,,,,,,,,,,,,,,,,
1684869331.06137,,,,,,,,,,,,,0,1684869331.06137,0.430398196,-0.431968987,0.5,,,,,,,,,,,
1684869331.06138,,,,,,,,,,,,,,,,,,,,,-1,-1,0,0.008,0.128000006,-0.136000007,1684869331.06138,
1684869331.06139,,,,,,,,,,,,,,,,,,1,1684869331.06139,59.549999237,,,,,,,,
1684869331.0614,-0.01492116,-0.00470959,0.00054805,1684869331.0614,0.132032856,-2.207857847,9.148714066,,,,,,,,,,,,,,,,,,,,,0.013459413
1684869331.10166,,,,,,,,-7.510106564,0.008965852,1684869331.10166,101090,18.229999542,,,,,,,,,,,,,,,,
1684869331.10168,,,,,,,,,,,,,0,1684869331.10168,0.402123868,-0.403694659,0.5,,,,,,,,,,,
1684869331.1017,,,,,,,,,,,,,,,,,,1,1684869331.1017,59.501998901,,,,,,,,
1684869331.10171,-0.01199862,-0.0050943,0.00097721,1684869331.10171,0.396701038,-2.220983028,8.953317642,,,,,,,,,,,,,,,,,,,,,0.040449463
1684869331.14164,,,,,,,,-7.510106564,0.008965852,1684869331.14164,101090,18.239999771,,,,,,,,,,,,,,,,
1684869331.14166,,,,,,,,,,,,,0,1684869331.14166,0.402123868,-0.403694659,0.5,,,,,,,,,,,
1684869331.14168,,,,,,,,,,,,,,,,,,,,,-1,-1,0.008,0,0.136000007,-0.143999994,1684869331.14168,
1684869331.14169,,,,,,,,,,,,,,,,,,1,1684869331.14169,59.479000092,,,,,,,,
1684869331.1417,-0.00969628,-0.00537887,0.0011456,1684869331.1417,0.45834583,-2.396025896,9.033800125,,,,,,,,,,,,,,,,,,,,,0.046739323
1684869331.14297,,,,,,,,,,,,,,,,,,,,,,,,,,,,
1684869331.18206,,,,,,,,-19.181962967,0.022912733,1684869331.18206,101230,18.229999542,,,,,,,,,,,,,,,,
1684869331.18207,,,,,,,,,,,,,0,1684869331.18207,0.380132705,-0.381703496,0.5,,,,,,,,,,,
1684869331.18209,,,,,,,,,,,,,,,,,,,,,-1,-1,0,0,0.136000007,-0.136000007,1684869331.18208,
1684869331.18209,,,,,,,,,,,,,,,,,,1,1684869331.18209,59.431999207,,,,,,,,
1684869331.1821,-0.00572821,-0.00557788,0.00131701,1684869331.1821,0.627342224,-2.505894899,8.919345856,,,,,,,,,,,,,,,,,,,,,0.063992926
1684869331.22294,,,,,,,,-31.672456741,0.037855819,1684869331.22294,101380,18.239999771,,,,,,,,,,,,,,,,
1684869331.22296,,,,,,,,,,,,,0,1684869331.22296,0.380132705,-0.381703496,0.5,,,,,,,,,,,
1684869331.22298,,,,,,,,,,,,,,,,,,,,,-1,-1,0,0.008,0.136000007,-0.143999994,1684869331.22298,
1684869331.22298,,,,,,,,,,,,,,,,,,1,1684869331.22298,59.384998322,,,,,,,,
1684869331.22299,-0.0017046,-0.00564765,0.0014222,1684869331.22299,0.584625483,-2.490807056,8.910727501,,,,,,,,,,,,,,,,,,,,,0.059630183
1684869331.24201,,,,,,,,,,,,,,,,,,,,,,,,,,,,
1684869331.26263,,,,,,,,-31.672456741,0.037855819,1684869331.26263,101380,18.239999771,,,,,,,,,,,,,,,,
1684869331.26265,,,,,,,,,,,,,0,1684869331.26265,0.380132705,-0.381703496,0.5,,,,,,,,,,,
1684869331.26266,,,,,,,,,,,,,,,,,,,,,-1,-1,0.008,0,0.136000007,-0.143999994,1684869331.26266,
1684869331.26267,,,,,,,,,,,,,,,,,,1,1684869331.26267,59.338001251,,,,,,,,
1684869331.26268,0.00214393,-0.00561468,0.00143834,1684869331.26268,0.926680028,-2.515823364,9.13734436,,,,,,,,,,,,,,,,,,,,,0.094603848
1684869331.30264,,,,,,,,-31.672456741,0.037855819,1684869331.30264,101380,18.239999771,,,,,,,,,,,,,,,,
1684869331.30266,,,,,,,,,,,,,0,1684869331.30266,0.364424735,-0.365995556,0.5,,,,,,,,,,,
1684869331.30267,,,,,,,,,,,,,,,,,,,,,-1,-1,0,0.048,0.088,-0.143999994,1684869331.30267,
1684869331.30268,,,,,,,,,,,,,,,,,,1,1684869331.30268,59.313999176,,,,,,,,
1684869331.30269,0.00566364,-0.00553832,0.00135208,1684869331.30269,1.061530232,-2.351290464,9.09969902,,,,,,,,,,,,,,,,,,,,,0.108421288
1684869331.34199,,,,,,,,,,,,,,,,,,,,,,,,,,,,
1684869331.34209,,,,,,,,-44.147994995,0.052798908,1684869331.34209,101530,18.239999771,,,,,,,,,,,,,,,,
1684869331.34211,,,,,,,,,,,,,0,1684869331.34211,0.364424735,-0.365995556,0.5,,,,,,,,,,,
1684869331.34212,,,,,,,,,,,,,,,,,,,,,-1,-1,0,0.008,0.119999997,-0.143999994,1684869331.34212,
1684869331.34213,,,,,,,,,,,,,,,,,,1,1684869331.34213,59.266998291,,,,,,,,
1684869331.34214,0.00759866,-0.00537745,0.00111729,1684869331.34214,1.24363625,-2.366204262,9.371660233,,,,,,,,,,,,,,,,,,,,,0.127114342
1684869331.38154,,,,,,,,-55.778903961,0.066745788,1684869331.38154,101670,18.239999771,,,,,,,,,,,,,,,,
1684869331.38156,,,,,,,,,,,,,0,1684869331.38156,0.320442438,-0.322013259,0.5,,,,,,,,,,,
1684869331.38157,,,,,,,,,,,,,,,,,,,,,-1,-1,0,0.008,0.128000006,-0.143999994,1684869331.38157,
1684869331.38158,,,,,,,,,,,,,,,,,,1,1684869331.38158,59.21900177,,,,,,,,
1684869331.38159,0.01019198,-0.00520712,0.00089594,1684869331.38159,1.275675535,-2.285429716,9.409574509,,,,,,,,,,,,,,,,,,,,,0.130407588
1684869331.42167,,,,,,,,-68.226638794,0.081688873,1684869331.42167,101820,18.229999542,,,,,,,,,,,,,,,,
1684869331.4217,,,,,,,,,,,,,0,1684869331.4217,0.320442438,-0.322013259,0.5,,,,,,,,,,,
1684869331.42172,,,,,,,,,,,,,,,,,,,,,-1,-1,0,0.008,0.128000006,-0.143999994,1684869331.42172,
1684869331.42173,,,,,,,,,,,,,,,,,,1,1684869331.42173,59.194999695,,,,,,,,
1684869331.42174,0.01144118,-0.0049812,0.00057213,1684869331.42174,1.105981231,-2.02869916,9.318888664,,,,,,,,,,,,,,,,,,,,,0.112980391
1684869331.4411,,,,,,,,,,,,,,,,,,,,,,,,,,,,
1684869331.46223,,,,,,,,-68.226638794,0.081688873,1684869331.46223,101820,18.239999771,,,,,,,,,,,,,,,,
1684869331.46225,,,,,,,,,,,,,0,1684869331.46225,0.320442438,-0.322013259,0.5,,,,,,,,,,,
1684869331.46226,,,,,,,,,,,,,,,,,,,,,-1,-1,0.008,0.008,0.136000007,-0.151999995,1684869331.46226,
1684869331.46226,,,,,,,,,,,,,,,,,,1,1684869331.46226,59.14799881,,,,,,,,
1684869331.46227,0.01474786,-0.00495022,0.00047296,1684869331.46227,1.117019653,-1.773051262,9.236150742,,,,,,,,,,,,,,,,,,,,,0.114112905
1684869331.50148,,,,,,,,-79.829742432,0.095635757,1684869331.50148,101960,18.239999771,,,,,,,,,,,,,,,,
1684869331.5015,,,,,,,,,,,,,0,1684869331.5015,0.312588483,-0.314159274,0.5,,,,,,,,,,,
1684869331.50151,,,,,,,,,,,,,,,,,,,,,-1,-1,0,0.008,0.136000007,-0.143999994,1684869331.50151,
1684869331.50152,,,,,,,,,,,,,,,,,,1,1684869331.50152,59.10100174,,,,,,,,
1684869331.50153,0.01687162,-0.0049383,0.00035545,1684869331.50153,1.272450924,-1.554536104,9.295469284,,,,,,,,,,,,,,,,,,,,,0.130076074
1684869331.54188,,,,,,,,,,,,,,,,,,,,,,,,,,,,
1684869331.54194,,,,,,,,-92.247825623,0.110578842,1684869331.54194,102110,18.239999771,,,,,,,,,,,,,,,,
1684869331.54197,,,,,,,,,,,,,0,1684869331.54197,0.312588483,-0.314159274,0.5,,,,,,,,,,,
1684869331.54198,,,,,,,,,,,,,,,,,,,,,-1,-1,0,0.008,0.136000007,-0.143999994,1684869331.54198,
1684869331.54199,,,,,,,,,,,,,,,,,,1,1684869331.54199,59.779998779,,,,,,,,
1684869331.542,0.01433696,-0.00481638,-0.00005776,1684869331.542,1.530850172,-1.276067257,9.791713715,,,,,,,,,,,,,,,,,,,,,0.156690353
1684869331.58201,,,,,,,,-104.652145386,0.125521928,1684869331.58201,102260,18.239999771,,,,,,,,,,,,,,,,
1684869331.58203,,,,,,,,,,,,,0,1684869331.58203,0.295309722,-0.296880513,0.5,,,,,,,,,,,
1684869331.58204,,,,,,,,,,,,,,,,,,,,,-1,-1,0,0,0.136000007,-0.143999994,1684869331.58204,
1684869331.58205,,,,,,,,,,,,,,,,,,1,1684869331.58205,59.299999237,,,,,,,,
1684869331.58206,0.0119233,-0.00458793,-0.00039759,1684869331.58206,1.638007164,-0.951540947,9.826527596,,,,,,,,,,,,,,,,,,,,,0.167758976
1684869331.62248,,,,,,,,-104.652145386,0.125521928,1684869331.62248,102260,18.239999771,,,,,,,,,,,,,,,,
1684869331.6225,,,,,,,,,,,,,0,1684869331.6225,0.295309722,-0.296880513,0.5,,,,,,,,,,,
1684869331.62251,,,,,,,,,,,,,,,,,,,,,-1,-1,0.008,0,0.136000007,-0.143999994,1684869331.62251,
1684869331.62252,,,,,,,,,,,,,,,,,,1,1684869331.62252,58.983001709,,,,,,,,
1684869331.62253,0.01016765,-0.00435348,-0.00054265,1684869331.62253,1.695956111,-0.657829106,9.743721962,,,,,,,,,,,,,,,,,,,,,0.173753293
1684869331.6412,,,,,,,,,,,,,,,,,,,,,,,,,,,,
1684869331.66302,,,,,,,,-128.59072876,0.154411897,1684869331.66302,102550,18.239999771,,,,,,,,,,,,,,,,
1684869331.66304,,,,,,,,,,,,,0,1684869331.66304,0.295309722,-0.296880513,0.5,,,,,,,,,,,
1684869331.66305,,,,,,,,,,,,,,,,,,,,,-1,-1,0.008,0,0.136000007,-0.143999994,1684869331.66305,
1684869331.66305,,,,,,,,,,,,,,,,,,1,1684869331.66305,58.959999084,,,,,,,,
1684869331.66306,0.01011362,-0.00403136,-0.00034542,1684869331.66306,1.798012614,-0.336522549,9.711400986,,,,,,,,,,,,,,,,,,,,,0.184325652
1684869331.70284,,,,,,,,-104.652145386,0.125521928,1684869331.70284,102260,18.239999771,,,,,,,,,,,,,,,,
1684869331.70286,,,,,,,,,,,,,0,1684869331.70286,0.245044231,-0.246615022,0.5,,,,,,,,,,,
1684869331.70287,,,,,,,,,,,,,,,,,,,,,-1,-1,0.008,0,0.136000007,-0.143999994,1684869331.70287,
1684869331.70288,,,,,,,,,,,,,,,,,,1,1684869331.70288,58.911998749,,,,,,,,
1684869331.70289,0.0098093,-0.00364601,0.00000943,1684869331.70289,1.952689767,-0.433620065,9.886425018,,,,,,,,,,,,,,,,,,,,,0.200389391
1684869331.74264,,,,,,,,-128.59072876,0.154411897,1684869331.74264,102550,18.239999771,,,,,,,,,,,,,,,,
1684869331.74266,,,,,,,,,,,,,0,1684869331.74266,0.245044231,-0.246615022,0.5,,,,,,,,,,,
1684869331.74267,,,,,,,,,,,,,,,,,,,,,-1,-1,0.008,0,0.136000007,-0.143999994,1684869331.74267,
1684869331.74268,,,,,,,,,,,,,,,,,,1,1684869331.74268,58.865001678,,,,,,,,
1684869331.74268,0.00896299,-0.00315393,0.00047062,1684869331.74268,2.061497927,-0.01514111,10.045915604,,,,,,,,,,,,,,,,,,,,,0.211720712
1684869331.74405,,,,,,,,,,,,,,,,,,,,,,,,,,,,
1684869331.78223,,,,,,,,-128.59072876,0.154411897,1684869331.78223,102550,18.239999771,,,,,,,,,,,,,,,,
1684869331.78224,,,,,,,,,,,,,0,1684869331.78224,0.213628307,-0.215199098,0.5,,,,,,,,,,,
1684869331.78226,,,,,,,,,,,,,,,,,,,,,-1,-1,0.008,0,0.136000007,-0.143999994,1684869331.78226,
1684869331.78227,,,,,,,,,,,,,,,,,,1,1684869331.78227,58.817001343,,,,,,,,
1684869331.78228,0.00773651,-0.00266381,0.00093205,1684869331.78228,2.128484249,0.290041983,9.943648338,,,,,,,,,,,,,,,,,,,,,0.218710346
1684869331.82139,,,,,,,,-152.47454834,0.183301866,1684869331.82139,102840,18.239999771,,,,,,,,,,,,,,,,
1684869331.82141,,,,,,,,,,,,,0,1684869331.82141,0.213628307,-0.215199098,0.5,,,,,,,,,,,
1684869331.82142,,,,,,,,,,,,,,,,,,,,,-1,-1,0.008,0,0.136000007,-0.143999994,1684869331.82142,
1684869331.82143,,,,,,,,,,,,,,,,,,1,1684869331.82143,58.793998718,,,,,,,,
1684869331.82144,0.00637538,-0.00220069,0.00137519,1684869331.82144,2.197085619,0.488276929,9.938147545,,,,,,,,,,,,,,,,,,,,,0.225879775
1684869331.84199,,,,,,,,,,,,,,,,,,,,,,,,,,,,
1684869331.86152,,,,,,,,-164.807571411,0.198244944,1684869331.86152,102990,18.239999771,,,,,,,,,,,,,,,,
1684869331.86153,,,,,,,,,,,,,0,1684869331.86153,0.213628307,-0.215199098,0.5,,,,,,,,,,,
1684869331.86154,,,,,,,,,,,,,,,,,,,,,-1,-1,0,0.008,0.136000007,-0.151999995,1684869331.86154,
1684869331.86155,,,,,,,,,,,,,,,,,,1,1684869331.86155,58.747001648,,,,,,,,
1684869331.86155,0.00480519,-0.00182508,0.00168433,1684869331.86155,2.344451666,0.569635749,10.017908096,,,,,,,,,,,,,,,,,,,,,0.241321353
1684869331.90139,,,,,,,,-164.807571411,0.198244944,1684869331.90139,102990,18.239999771,,,,,,,,,,,,,,,,
1684869331.90141,,,,,,,,,,,,,0,1684869331.90141,0.17749998,-0.179070786,0.5,,,,,,,,,,,
1684869331.90142,,,,,,,,,,,,,,,,,,,,,-1,-1,0,0.008,0.136000007,-0.143999994,1684869331.90142,
1684869331.90143,,,,,,,,,,,,,,,,,,1,1684869331.90143,58.700000763,,,,,,,,
1684869331.90144,0.0030816,-0.00158899,0.00182279,1684869331.90144,2.284379721,0.784199893,9.901766777,,,,,,,,,,,,,,,,,,,,,0.235019919
1684869331.942,,,,,,,,,,,,,,,,,,,,,,,,,,,,
1684869331.9442,,,,,,,,-176.304885864,0.212191835,1684869331.9442,103130.0078125,18.239999771,,,,,,,,,,,,,,,,
1684869331.94422,,,,,,,,,,,,,0,1684869331.94422,0.17749998,-0.179070786,0.5,,,,,,,,,,,
1684869331.94424,,,,,,,,,,,,,,,,,,,,,-1,-1,0,0.008,0.128000006,-0.143999994,1684869331.94424,
1684869331.94424,,,,,,,,,,,,,,,,,,1,1684869331.94424,58.675998688,,,,,,,,
1684869331.94425,0.00121886,-0.00143259,0.0017017,1684869331.94425,2.380766153,0.871743143,9.772413254,,,,,,,,,,,,,,,,,,,,,0.245135402
1684869331.98112,,,,,,,,-188.608856201,0.227134913,1684869331.98112,103280.0078125,18.239999771,,,,,,,,,,,,,,,,
1684869331.98114,,,,,,,,,,,,,0,1684869331.98114,0.163362816,-0.164933607,0.5,,,,,,,,,,,
1684869331.98115,,,,,,,,,,,,,,,,,,,,,-1,-1,0,0.008,0.136000007,-0.143999994,1684869331.98115,
1684869331.98115,,,,,,,,,,,,,,,,,,1,1684869331.98115,58.627998352,,,,,,,,
1684869331.98116,-0.0005196,-0.00149702,0.00132672,1684869331.98116,2.458011627,0.977125823,9.755805016,,,,,,,,,,,,,,,,,,,,,0.253260562
1684869332.02114,,,,,,,,-188.608856201,0.227134913,1684869332.02114,103280.0078125,18.239999771,,,,,,,,,,,,,,,,
1684869332.02116,,,,,,,,,,,,,0,1684869332.02116,0.163362816,-0.164933607,0.5,,,,,,,,,,,
1684869332.02119,,,,,,,,,,,,,,,,,,,,,-1,-1,0.008,0,0.136000007,-0.151999995,1684869332.02119,
1684869332.02119,,,,,,,,,,,,,,,,,,1,1684869332.02119,58.581001282,,,,,,,,
1684869332.0212,-0.00217034,-0.00168414,0.00076682,1684869332.0212,2.387164354,0.860274076,9.869509697,,,,,,,,,,,,,,,,,,,,,0.24580777
1684869332.0419,,,,,,,,,,,,,,,,,,,,,,,,,,,,
1684869332.062,,,,,,,,-212.355102539,0.256024897,1684869332.062,103569.9921875,18.239999771,,,,,,,,,,,,,,,,
1684869332.06202,,,,,,,,,,,,,0,1684869332.06202,0.163362816,-0.164933607,0.5,,,,,,,,,,,
1684869332.06203,,,,,,,,,,,,,,,,,,,,,-1,-1,0,0.008,0.128000006,-0.143999994,1684869332.06203,
1684869332.06203,,,,,,,,,,,,,,,,,,1,1684869332.06203,58.556999207,,,,,,,,
1684869332.06204,-0.00310253,-0.00190929,0.00013708,1684869332.06204,2.365217924,1.007481098,9.810926437,,,,,,,,,,,,,,,,,,,,,0.243501956
1684869332.10186,,,,,,,,-200.079055786,0.241081804,1684869332.10186,103419.9921875,18.239999771,,,,,,,,,,,,,,,,
1684869332.10188,,,,,,,,,,,,,0,1684869332.10187,0.146084055,-0.147654861,0.5,,,,,,,,,,,
1684869332.10189,,,,,,,,,,,,,,,,,,,,,-1,-1,0.008,0,0.136000007,-0.143999994,1684869332.10188,
1684869332.10189,,,,,,,,,,,,,,,,,,1,1684869332.10189,58.509998322,,,,,,,,
1684869332.1019,-0.00365936,-0.00217439,-0.00049716,1684869332.1019,2.419292927,0.640654743,9.653725624,,,,,,,,,,,,,,,,,,,,,0.249185788
1684869332.1414,,,,,,,,,,,,,,,,,,,,,,,,,,,,
1684869332.14317,,,,,,,,-212.355102539,0.256024897,1684869332.14317,103569.9921875,18.239999771,,,,,,,,,,,,,,,,
1684869332.14319,,,,,,,,,,,,,0,1684869332.14319,0.146084055,-0.147654861,0.5,,,,,,,,,,,
1684869332.1432,,,,,,,,,,,,,,,,,,,,,-1,-1,0.008,0.008,0.128000006,-0.136000007,1684869332.14321,
1684869332.14321,,,,,,,,,,,,,,,,,,1,1684869332.14321,58.463001251,,,,,,,,
1684869332.14322,-0.00393864,-0.00248188,-0.00094065,1684869332.14322,3.848529577,-0.890331626,11.012890816,,,,,,,,,,,,,,,,,,,,,0.403138084
1684869332.18356,,,,,,,,-200.079055786,0.241081804,1684869332.18356,103419.9921875,18.239999771,,,,,,,,,,,,,,,,
1684869332.18358,,,,,,,,,,,,,0,1684869332.18358,0.139800876,-0.141371667,0.5,,,,,,,,,,,
1684869332.18359,,,,,,,,,,,,,,,,,,,,,-1,-1,0.008,0,0.136000007,-0.143999994,1684869332.18359,
1684869332.1836,,,,,,,,,,,,,,,,,,1,1684869332.1836,58.416000366,,,,,,,,
1684869332.18361,-0.00419106,-0.00281446,-0.00103555,1684869332.18361,2.423710823,0.473509997,9.851858139,,,,,,,,,,,,,,,,,,,,,0.249650515
1684869332.22259,,,,,,,,-224.617736816,0.27096796,1684869332.22259,103719.9921875,18.239999771,,,,,,,,,,,,,,,,
1684869332.22261,,,,,,,,,,,,,0,1684869332.22261,0.139800876,-0.141371667,0.5,,,,,,,,,,,
1684869332.22262,,,,,,,,,,,,,,,,,,,,,-1,-1,0,0.008,0.128000006,-0.143999994,1684869332.22262,
1684869332.22263,,,,,,,,,,,,,,,,,,1,1684869332.22263,58.391998291,,,,,,,,
1684869332.22264,-0.00498721,-0.00259063,-0.00123649,1684869332.22264,2.395152092,0.181555286,10.103392601,,,,,,,,,,,,,,,,,,,,,0.246647337
1684869332.24146,,,,,,,,,,,,,,,,,,,,,,,,,,,,
1684869332.26205,,,,,,,,-236.049530029,0.284914851,1684869332.26205,103860,18.239999771,,,,,,,,,,,,,,,,
1684869332.26206,,,,,,,,,,,,,0,1684869332.26206,0.139800876,-0.141371667,0.5,,,,,,,,,,,
1684869332.26207,,,,,,,,,,,,,,,,,,,,,-1,-1,0.008,0,0.143999994,-0.151999995,1684869332.26207,
1684869332.26208,,,,,,,,,,,,,,,,,,1,1684869332.26208,58.345001221,,,,,,,,
1684869332.26209,-0.00629408,-0.00247245,-0.00124586,1684869332.26209,2.381515503,-0.175519213,9.806325912,,,,,,,,,,,,,,,,,,,,,0.245214143
1684869332.30164,,,,,,,,-236.049530029,0.284914851,1684869332.30164,103860,18.239999771,,,,,,,,,,,,,,,,
1684869332.30166,,,,,,,,,,,,,0,1684869332.30165,0.139800876,-0.141371667,0.5,,,,,,,,,,,
1684869332.30167,,,,,,,,,,,,,,,,,,,,,-1,-1,0.008,0,0.136000007,-0.143999994,1684869332.30167,
1684869332.30167,,,,,,,,,,,,,,,,,,1,1684869332.30167,58.297000885,,,,,,,,
1684869332.30168,-0.0086376,-0.00218651,-0.00141022,1684869332.30168,2.223017931,0.194119275,9.8511343,,,,,,,,,,,,,,,,,,,,,0.228592982
1684869332.34226,,,,,,,,,,,,,,,,,,,,,,,,,,,,
1684869332.34565,,,,,,,,-248.283477783,0.299857944,1684869332.34565,104010,18.239999771,,,,,,,,,,,,,,,,
1684869332.34567,,,,,,,,,,,,,0,1684869332.34567,0.139800876,-0.141371667,0.5,,,,,,,,,,,
1684869332.34569,,,,,,,,,,,,,,,,,,,,,-1,-1,0,0.008,0.128000006,-0.143999994,1684869332.34569,
1684869332.34569,,,,,,,,,,,,,,,,,,1,1684869332.34569,58.27399826,,,,,,,,
1684869332.3457,-0.01114341,-0.00178381,-0.00143041,1684869332.3457,2.321152687,-0.557679296,9.616470337,,,,,,,,,,,,,,,,,,,,,0.238876188
1684869332.38207,,,,,,,,-248.283477783,0.299857944,1684869332.38207,104010,18.219999313,,,,,,,,,,,,,,,,
1684869332.38209,,,,,,,,,,,,,0,1684869332.38209,0.163362816,-0.164933607,0.5,,,,,,,,,,,
1684869332.3821,,,,,,,,,,,,,,,,,,,,,-1,-1,0,0.008,0.128000006,-0.143999994,1684869332.3821,
1684869332.38211,,,,,,,,,,,,,,,,,,1,1684869332.38211,58.22700119,,,,,,,,
1684869332.38212,-0.01202751,-0.00155957,-0.00148292,1684869332.38212,2.421470642,-0.504621506,9.578338623,,,,,,,,,,,,,,,,,,,,,0.249414859
1684869332.42309,,,,,,,,-260.503143311,0.314801037,1684869332.42309,104160,18.229999542,,,,,,,,,,,,,,,,
1684869332.42311,,,,,,,,,,,,,0,1684869332.42311,0.163362816,-0.164933607,0.5,,,,,,,,,,,
1684869332.42312,,,,,,,,,,,,,,,,,,,,,-1,-1,0,0.008,0.136000007,-0.143999994,1684869332.42312,
1684869332.42313,,,,,,,,,,,,,,,,,,1,1684869332.42313,58.179000854,,,,,,,,
1684869332.42314,-0.0125828,-0.00134594,-0.00137282,1684869332.42314,2.466375113,-1.0870713,9.593850136,,,,,,,,,,,,,,,,,,,,,0.254141301
1684869332.44104,,,,,,,,,,,,,,,,,,,,,,,,,,,,
1684869332.4622,,,,,,,,-271.895843506,0.328747898,1684869332.4622,104300,18.239999771,,,,,,,,,,,,,,,,
1684869332.46221,,,,,,,,,,,,,0,1684869332.46221,0.163362816,-0.164933607,0.5,,,,,,,,,,,
1684869332.46223,,,,,,,,,,,,,,,,,,,,,-1,-1,0.008,0,0.136000007,-0.143999994,1684869332.46223,
1684869332.46223,,,,,,,,,,,,,,,,,,1,1684869332.46223,58.15599823,,,,,,,,
1684869332.46224,-0.01275782,-0.00114001,-0.001314,1684869332.46224,2.49431181,-0.747471571,9.853347778,,,,,,,,,,,,,,,,,,,,,0.257084716
1684869332.50214,,,,,,,,-271.895843506,0.328747898,1684869332.50214,104300,18.239999771,,,,,,,,,,,,,,,,
1684869332.50216,,,,,,,,,,,,,0,1684869332.50216,0.125663713,-0.127234504,0.5,,,,,,,,,,,
1684869332.50217,,,,,,,,,,,,,,,,,,,,,-1,-1,0,0.008,0.128000006,-0.143999994,1684869332.50217,
1684869332.50218,,,,,,,,,,,,,,,,,,1,1684869332.50218,58.10900116,,,,,,,,
1684869332.50219,-0.01209877,-0.00101394,-0.00120852,1684869332.50219,2.255486012,-1.09815073,9.540520668,,,,,,,,,,,,,,,,,,,,,0.231992423
1684869332.54267,,,,,,,,,,,,,,,,,,,,,,,,,,,,
1684869332.54491,,,,,,,,-284.089019775,0.343690991,1684869332.54491,104450,18.239999771,,,,,,,,,,,,,,,,
1684869332.54493,,,,,,,,,,,,,0,1684869332.54493,0.125663713,-0.127234504,0.5,,,,,,,,,,,
1684869332.54495,,,,,,,,,,,,,,,,,,,,,-1,-1,0,0.008,0.136000007,-0.143999994,1684869332.54495,
1684869332.54496,,,,,,,,,,,,,,,,,,1,1684869332.54496,58.619998932,,,,,,,,
1684869332.54497,-0.01110648,-0.00096929,-0.0011072,1684869332.54497,2.019121647,-1.427270174,9.089735985,,,,,,,,,,,,,,,,,,,,,0.207304433
1684869332.58279,,,,,,,,-284.089019775,0.343690991,1684869332.58279,104450,18.239999771,,,,,,,,,,,,,,,,
1684869332.58281,,,,,,,,,,,,,0,1684869332.58281,0.125663713,-0.127234504,0.5,,,,,,,,,,,
1684869332.58282,,,,,,,,,,,,,,,,,,,,,-1,-1,0.008,0,0.136000007,-0.143999994,1684869332.58282,
1684869332.58283,,,,,,,,,,,,,,,,,,1,1684869332.58283,58.380001068,,,,,,,,
1684869332.58284,-0.00960887,-0.00092314,-0.00093644,1684869332.58284,2.038460255,-1.446738958,9.334303856,,,,,,,,,,,,,,,,,,,,,0.209319308
1684869332.62281,,,,,,,,-295.456115723,0.357637882,1684869332.62281,104590,18.229999542,,,,,,,,,,,,,,,,
1684869332.62283,,,,,,,,,,,,,0,1684869332.62283,0.15393804,-0.155508831,0.5,,,,,,,,,,,
1684869332.62284,,,,,,,,,,,,,,,,,,,,,-1,-1,0,0,0.136000007,-0.143999994,1684869332.62284,
1684869332.62285,,,,,,,,,,,,,,,,,,1,1684869332.62285,57.991001129,,,,,,,,
1684869332.62286,-0.00821824,-0.00095095,-0.00083008,1684869332.62286,1.918815136,-1.995149851,9.291790009,,,,,,,,,,,,,,,,,,,,,0.196867062
1684869332.64243,,,,,,,,,,,,,,,,,,,,,,,,,,,,
1684869332.66267,,,,,,,,-307.620910645,0.372580975,1684869332.66267,104740,18.239999771,,,,,,,,,,,,,,,,
1684869332.66269,,,,,,,,,,,,,0,1684869332.66269,0.15393804,-0.155508831,0.5,,,,,,,,,,,
1684869332.6627,,,,,,,,,,,,,,,,,,,,,-1,-1,0,0.008,0.136000007,-0.143999994,1684869332.6627,
1684869332.66271,,,,,,,,,,,,,,,,,,1,1684869332.66271,57.943000793,,,,,,,,
1684869332.66272,-0.00682269,-0.00093703,-0.00073338,1684869332.66272,1.504086852,-1.84929502,8.828891754,,,,,,,,,,,,,,,,,,,,,0.153928948
1684869332.70226,,,,,,,,-307.620910645,0.372580975,1684869332.70226,104740,18.219999313,,,,,,,,,,,,,,,,
1684869332.70228,,,,,,,,,,,,,0,1684869332.70228,0.19477874,-0.196349546,0.5,,,,,,,,,,,
1684869332.70229,,,,,,,,,,,,,,,,,,,,,-1,-1,0,0.008,0.128000006,-0.143999994,1684869332.70229,
1684869332.7023,,,,,,,,,,,,,,,,,,1,1684869332.7023,57.895999908,,,,,,,,
1684869332.70231,-0.00537198,-0.00100729,-0.00066855,1684869332.70231,1.750545979,-2.064056873,9.033144951,,,,,,,,,,,,,,,,,,,,,0.179405914
1684869332.7415,,,,,,,,,,,,,,,,,,,,,,,,,,,,
1684869332.74266,,,,,,,,-319.771636963,0.387524039,1684869332.74266,104890,18.229999542,,,,,,,,,,,,,,,,
1684869332.74268,,,,,,,,,,,,,0,1684869332.74268,0.19477874,-0.196349546,0.5,,,,,,,,,,,
1684869332.7427,,,,,,,,,,,,,,,,,,,,,-1,-1,0.008,0,0.136000007,-0.143999994,1684869332.7427,
1684869332.74271,,,,,,,,,,,,,,,,,,1,1684869332.74271,57.872001648,,,,,,,,
1684869332.74272,-0.00372606,-0.00101894,-0.00065079,1684869332.74272,1.665183663,-2.101945162,9.035317421,,,,,,,,,,,,,,,,,,,,,0.170569379
1684869332.78162,,,,,,,,-319.771636963,0.387524039,1684869332.78162,104890,18.239999771,,,,,,,,,,,,,,,,
1684869332.78164,,,,,,,,,,,,,0,1684869332.78164,0.215199098,-0.216769889,0.5,,,,,,,,,,,
1684869332.78165,,,,,,,,,,,,,,,,,,,,,-1,-1,0,0.008,0.136000007,-0.143999994,1684869332.78165,
1684869332.78166,,,,,,,,,,,,,,,,,,1,1684869332.78166,57.825000763,,,,,,,,
1684869332.78167,-0.00222885,-0.00111379,-0.00073451,1684869332.78167,1.774632812,-2.237235308,8.819447517,,,,,,,,,,,,,,,,,,,,,0.181901867
1684869332.82133,,,,,,,,-331.100128174,0.401470929,1684869332.82133,105030.0078125,18.239999771,,,,,,,,,,,,,,,,
1684869332.82135,,,,,,,,,,,,,0,1684869332.82135,0.215199098,-0.216769889,0.5,,,,,,,,,,,
1684869332.82137,,,,,,,,,,,,,,,,,,,,,-1,-1,0,0.008,0.136000007,-0.143999994,1684869332.82136,
1684869332.82137,,,,,,,,,,,,,,,,,,1,1684869332.82137,57.777999878,,,,,,,,
1684869332.82138,-0.00067166,-0.00126023,-0.00083178,1684869332.82138,1.923983574,-2.203480482,8.919962883,,,,,,,,,,,,,,,,,,,,,0.197404322
1684869332.84117,,,,,,,,,,,,,,,,,,,,,,,,,,,,
1684869332.86174,,,,,,,,-343.223693848,0.416414022,1684869332.86174,105180.0078125,18.239999771,,,,,,,,,,,,,,,,
1684869332.86175,,,,,,,,,,,,,0,1684869332.86175,0.215199098,-0.216769889,0.5,,,,,,,,,,,
1684869332.86176,,,,,,,,,,,,,,,,,,,,,-1,-1,0,0.008,0.136000007,-0.151999995,1684869332.86176,
1684869332.86177,,,,,,,,,,,,,,,,,,1,1684869332.86177,57.755001068,,,,,,,,
1684869332.86178,0.00075595,-0.00138259,-0.00092916,1684869332.86178,1.931498051,-2.200655699,8.854178429,,,,,,,,,,,,,,,,,,,,,0.198185556
1684869332.90265,,,,,,,,-354.525939941,0.430360883,1684869332.90265,105319.9921875,18.239999771,,,,,,,,,,,,,,,,
1684869332.90266,,,,,,,,,,,,,0,1684869332.90266,0.190066352,-0.191637158,0.5,,,,,,,,,,,
1684869332.90267,,,,,,,,,,,,,,,,,,,,,-1,-1,0,0.008,0.136000007,-0.143999994,1684869332.90267,
1684869332.90268,,,,,,,,,,,,,,,,,,1,1684869332.90268,57.707000732,,,,,,,,
1684869332.90269,0.00135805,-0.00151298,-0.00103532,1684869332.90269,2.011041164,-2.148950338,8.954382896,,,,,,,,,,,,,,,,,,,,,0.206462787
1684869332.94207,,,,,,,,,,,,,,,,,,,,,,,,,,,,
1684869332.94548,,,,,,,,-366.623443604,0.445303977,1684869332.94548,105469.9921875,18.239999771,,,,,,,,,,,,,,,,
1684869332.9455,,,,,,,,,,,,,0,1684869332.9455,0.190066352,-0.191637158,0.5,,,,,,,,,,,
1684869332.94552,,,,,,,,,,,,,,,,,,,,,-1,-1,0.008,0,0.136000007,-0.143999994,1684869332.94552,
1684869332.94553,,,,,,,,,,,,,,,,,,1,1684869332.94553,57.659999847,,,,,,,,
1684869332.94554,0.00159381,-0.00164981,-0.00110868,1684869332.94554,2.09382844,-2.190404415,8.990003586,,,,,,,,,,,,,,,,,,,,,0.21509288
1684869332.98186,,,,,,,,-378.706085205,0.46024707,1684869332.98186,105619.9921875,18.239999771,,,,,,,,,,,,,,,,
1684869332.98188,,,,,,,,,,,,,0,1684869332.98188,0.190066352,-0.191637158,0.5,,,,,,,,,,,
1684869332.98189,,,,,,,,,,,,,,,,,,,,,-1,-1,0.008,0,0.136000007,-0.143999994,1684869332.98189,
1684869332.9819,,,,,,,,,,,,,,,,,,1,1684869332.9819,57.637001038,,,,,,,,
1684869332.98191,0.00206616,-0.00176507,-0.00117306,1684869332.98191,2.10556078,-2.098684311,8.961531639,,,,,,,,,,,,,,,,,,,,,0.21631721
1684869333.0215,,,,,,,,-389.971160889,0.47419396,1684869333.0215,105760,18.239999771,,,,,,,,,,,,,,,,
1684869333.02152,,,,,,,,,,,,,0,1684869333.02152,0.174358398,-0.175929189,0.5,,,,,,,,,,,
1684869333.02153,,,,,,,,,,,,,,,,,,,,,-1,-1,0.008,0,0.136000007,-0.143999994,1684869333.02153,
1684869333.02154,,,,,,,,,,,,,,,,,,1,1684869333.02154,57.589000702,,,,,,,,
1684869333.02154,0.00231115,-0.00190659,-0.00124639,1684869333.02154,2.283013821,-1.983466506,9.022963524,,,,,,,,,,,,,,,,,,,,,0.23487675
1684869333.04246,,,,,,,,,,,,,,,,,,,,,,,,,,,,
1684869333.0629,,,,,,,,-402.026977539,0.489137024,1684869333.0629,105910,18.219999313,,,,,,,,,,,,,,,,
1684869333.06292,,,,,,,,,,,,,0,1684869333.06292,0.174358398,-0.175929189,0.5,,,,,,,,,,,
1684869333.06293,,,,,,,,,,,,,,,,,,,,,-1,-1,0,0.008,0.128000006,-0.143999994,1684869333.06293,
1684869333.06294,,,,,,,,,,,,,,,,,,1,1684869333.06294,57.541999817,,,,,,,,
1684869333.06295,0.00250523,-0.0020711,-0.00133811,1684869333.06295,2.314638376,-1.932426095,9.039613724,,,,,,,,,,,,,,,,,,,,,0.23819279
1684869333.1028,,,,,,,,-414.069946289,0.504080117,1684869333.1028,106060,18.229999542,,,,,,,,,,,,,,,,
1684869333.10282,,,,,,,,,,,,,0,1684869333.10282,0.174358398,-0.175929189,0.5,,,,,,,,,,,
1684869333.10283,,,,,,,,,,,,,,,,,,,,,-1,-1,-0.016000001,0.032000002,0.104000002,-0.143999994,1684869333.10283,
1684869333.10285,,,,,,,,,,,,,,,,,,1,1684869333.10285,57.518001556,,,,,,,,
1684869333.10286,0.00273649,-0.00214274,-0.00139342,1684869333.10286,2.376544952,-1.753874898,8.960453987,,,,,,,,,,,,,,,,,,,,,0.244691871
1684869333.14132,,,,,,,,,,,,,,,,,,,,,,,,,,,,
1684869333.14275,,,,,,,,-425.297210693,0.518027008,1684869333.14275,106200,18.239999771,,,,,,,,,,,,,,,,
1684869333.14277,,,,,,,,,,,,,0,1684869333.14277,0.131946892,-0.133517683,0.5,,,,,,,,,,,
1684869333.14278,,,,,,,,,,,,,,,,,,,,,-1,-1,0,0.008,0.128000006,-0.136000007,1684869333.14278,
1684869333.14278,,,,,,,,,,,,,,,,,,1,1684869333.14278,57.493999481,,,,,,,,
1684869333.14279,0.00284283,-0.00219933,-0.00140695,1684869333.14279,2.446710825,-1.76292479,8.893769264,,,,,,,,,,,,,,,,,,,,,0.252070819
1684869333.18222,,,,,,,,-437.312561035,0.532970071,1684869333.18222,106350,18.239999771,,,,,,,,,,,,,,,,
1684869333.18224,,,,,,,,,,,,,0,1684869333.18223,0.113097332,-0.114668131,0.5,,,,,,,,,,,
1684869333.18225,,,,,,,,,,,,,,,,,,,,,-1,-1,0,0.008,0.136000007,-0.143999994,1684869333.18225,
1684869333.18225,,,,,,,,,,,,,,,,,,1,1684869333.18225,57.423999786,,,,,,,,
1684869333.18226,0.00294458,-0.00222291,-0.00135569,1684869333.18226,2.554681301,-1.717421174,8.930829048,,,,,,,,,,,,,,,,,,,,,0.26345308
1684869333.22171,,,,,,,,-437.312561035,0.532970071,1684869333.22171,106350,18.239999771,,,,,,,,,,,,,,,,
1684869333.22173,,,,,,,,,,,,,0,1684869333.22173,0.113097332,-0.114668131,0.5,,,,,,,,,,,
1684869333.22174,,,,,,,,,,,,,,,,,,,,,-1,-1,-0.024,0.008,0.136000007,-0.143999994,1684869333.22174,
1684869333.22175,,,,,,,,,,,,,,,,,,1,1684869333.22175,57.376998901,,,,,,,,
1684869333.22176,0.00311112,-0.00227011,-0.00129031,1684869333.22176,2.541677237,-1.834853768,8.885812759,,,,,,,,,,,,,,,,,,,,,0.262080369
1684869333.24157,,,,,,,,,,,,,,,,,,,,,,,,,,,,
1684869333.262,,,,,,,,-448.515075684,0.546916962,1684869333.262,106490,18.239999771,,,,,,,,,,,,,,,,
1684869333.26201,,,,,,,,,,,,,0,1684869333.26201,0.113097332,-0.114668131,0.5,,,,,,,,,,,
1684869333.26202,,,,,,,,,,,,,,,,,,,,,-1,-1,0,0.024,0.112000003,-0.136000007,1684869333.26202,
1684869333.26203,,,,,,,,,,,,,,,,,,1,1684869333.26203,57.353000641,,,,,,,,
1684869333.26204,0.00357425,-0.00233804,-0.00123889,1684869333.26204,2.635066271,-1.645242214,8.924681664,,,,,,,,,,,,,,,,,,,,,0.271949937
1684869333.30274,,,,,,,,-471.681793213,0.575806916,1684869333.30274,106780.0078125,18.239999771,,,,,,,,,,,,,,,,
1684869333.30276,,,,,,,,,,,,,0,1684869333.30276,0.084823005,-0.086393796,0.5,,,,,,,,,,,
1684869333.30277,,,,,,,,,,,,,,,,,,,,,-1,-1,0,0.008,0.136000007,-0.143999994,1684869333.30277,
1684869333.30277,,,,,,,,,,,,,,,,,,1,1684869333.30277,57.305000305,,,,,,,,
1684869333.30278,0.00342143,-0.00231388,-0.00125759,1684869333.30278,2.830234528,-1.495857,8.997617722,,,,,,,,,,,,,,,,,,,,,0.292665128
1684869333.34159,,,,,,,,,,,,,,,,,,,,,,,,,,,,
1684869333.34422,,,,,,,,-483.645294189,0.590750039,1684869333.34422,106930.0078125,18.239999771,,,,,,,,,,,,,,,,
1684869333.34424,,,,,,,,,,,,,0,1684869333.34424,0.084823005,-0.086393796,0.5,,,,,,,,,,,
1684869333.34425,,,,,,,,,,,,,,,,,,,,,-1,-1,0.024,-0.016000001,0.136000007,-0.143999994,1684869333.34425,
1684869333.34426,,,,,,,,,,,,,,,,,,1,1684869333.34426,57.25799942,,,,,,,,
1684869333.34427,0.0026055,-0.00228942,-0.00125269,1684869333.34427,2.81447196,-1.575321317,8.918457031,,,,,,,,,,,,,,,,,,,,,0.290987408
1684869333.38238,,,,,,,,-495.594238281,0.605693102,1684869333.38238,107080.0078125,18.239999771,,,,,,,,,,,,,,,,
1684869333.3824,,,,,,,,,,,,,0,1684869333.3824,0.084823005,-0.086393796,0.5,,,,,,,,,,,
1684869333.38241,,,,,,,,,,,,,,,,,,,,,-1,-1,0,0.008,0.136000007,-0.143999994,1684869333.38241,
1684869333.38241,,,,,,,,,,,,,,,,,,1,1684869333.38241,57.23500061,,,,,,,,
1684869333.38244,0.00148844,-0.00224941,-0.00132211,1684869333.38244,2.848585844,-1.37387681,9.039185524,,,,,,,,,,,,,,,,,,,,,0.294619455
1684869333.42228,,,,,,,,-506.733917236,0.619639993,1684869333.42228,107219.9921875,18.239999771,,,,,,,,,,,,,,,,
1684869333.4223,,,,,,,,,,,,,0,1684869333.4223,0.034557518,-0.036128316,0.5,,,,,,,,,,,
1684869333.42231,,,,,,,,,,,,,,,,,,,,,-1,-1,0.008,0,0.136000007,-0.143999994,1684869333.42231,
1684869333.42231,,,,,,,,,,,,,,,,,,1,1684869333.42232,57.187000275,,,,,,,,
1684869333.42232,0.00089561,-0.00215734,-0.00138298,1684869333.42232,3.066600323,-1.323298335,9.03362751,,,,,,,,,,,,,,,,,,,,,0.317928369
1684869333.44162,,,,,,,,,,,,,,,,,,,,,,,,,,,,
1684869333.46174,,,,,,,,-529.773010254,0.648529947,1684869333.46174,107510,18.239999771,,,,,,,,,,,,,,,,
1684869333.46175,,,,,,,,,,,,,0,1684869333.46175,0.034557518,-0.036128316,0.5,,,,,,,,,,,
1684869333.46176,,,,,,,,,,,,,,,,,,,,,-1,-1,0.008,0,0.136000007,-0.143999994,1684869333.46176,
1684869333.46177,,,,,,,,,,,,,,,,,,1,1684869333.46177,57.13999939,,,,,,,,
1684869333.46178,0.00054457,-0.00194124,-0.00137527,1684869333.46178,3.079175234,-1.335712433,8.848734856,,,,,,,,,,,,,,,,,,,,,0.319278144
1684869333.5017,,,,,,,,-553.554138184,0.678416133,1684869333.5017,107810,18.239999771,,,,,,,,,,,,,,,,
1684869333.50172,,,,,,,,,,,,,0,1684869333.50172,0.034557518,-0.036128316,0.5,,,,,,,,,,,
1684869333.50173,,,,,,,,,,,,,,,,,,,,,-1,-1,0,0.008,0.136000007,-0.143999994,1684869333.50173,
1684869333.50174,,,,,,,,,,,,,,,,,,1,1684869333.50174,57.11700058,,,,,,,,
1684869333.50175,0.00042009,-0.00182888,-0.00136217,1684869333.50175,3.153787136,-1.267821908,8.904847145,,,,,,,,,,,,,,,,,,,,,0.327299398
1684869333.54342,,,,,,,,,,,,,,,,,,,,,,,,,,,,
1684869333.54352,,,,,,,,-576.491210938,0.707306087,1684869333.54352,108100,18.25,,,,,,,,,,,,,,,,
1684869333.54354,,,,,,,,,,,,,0,1684869333.54354,-0.009424778,0.007853982,0.5,,,,,,,,,,,
1684869333.54355,,,,,,,,,,,,,,,,,,,,,-1,-1,0,0.008,0.128000006,-0.136000007,1684869333.54355,
1684869333.54356,,,,,,,,,,,,,,,,,,1,1684869333.54356,57.689998627,,,,,,,,
1684869333.54357,0.00166302,-0.00177253,-0.0013215,1684869333.54357,3.146569729,-1.206863165,8.825997353,,,,,,,,,,,,,,,,,,,,,0.326522535
1684869333.58265,,,,,,,,-576.491210938,0.707306087,1684869333.58265,108100,18.239999771,,,,,,,,,,,,,,,,
1684869333.58267,,,,,,,,,,,,,0,1684869333.58267,-0.032986723,0.031415928,0.5,,,,,,,,,,,
1684869333.58268,,,,,,,,,,,,,,,,,,,,,-1,-1,0,0.008,0.136000007,-0.143999994,1684869333.58268,
1684869333.58269,,,,,,,,,,,,,,,,,,1,1684869333.58269,57.220001221,,,,,,,,
1684869333.5827,0.00265627,-0.00157937,-0.00124001,1684869333.5827,3.265766144,-1.227450371,9.00609684,,,,,,,,,,,,,,,,,,,,,0.339379181
1684869333.62225,,,,,,,,-611.197998047,0.751139164,1684869333.62225,108540,18.239999771,,,,,,,,,,,,,,,,
1684869333.62227,,,,,,,,,,,,,0,1684869333.62227,-0.032986723,0.031415928,0.5,,,,,,,,,,,
1684869333.62228,,,,,,,,,,,,,,,,,,,,,-1,-1,0.008,0,0.136000007,-0.143999994,1684869333.62228,
1684869333.62229,,,,,,,,,,,,,,,,,,1,1684869333.62229,56.999000549,,,,,,,,
1684869333.6223,0.00194402,-0.00129098,-0.00121875,1684869333.6223,3.4053936,-1.101832986,9.000266075,,,,,,,,,,,,,,,,,,,,,0.354514315
1684869333.64226,,,,,,,,,,,,,,,,,,,,,,,,,,,,
1684869333.66192,,,,,,,,-611.197998047,0.751139164,1684869333.66192,108540,18.25,,,,,,,,,,,,,,,,
1684869333.66194,,,,,,,,,,,,,0,1684869333.66194,-0.032986723,0.031415928,0.5,,,,,,,,,,,
1684869333.66196,,,,,,,,,,,,,,,,,,,,,-1,-1,0,0.008,0.136000007,-0.151999995,1684869333.66196,
1684869333.66196,,,,,,,,,,,,,,,,,,1,1684869333.66196,56.951999664,,,,,,,,
1684869333.66197,0.00041568,-0.00102988,-0.00129907,1684869333.66197,3.337534904,-1.132357478,8.894796371,,,,,,,,,,,,,,,,,,,,,0.347148319
1684869333.70142,,,,,,,,-645.790161133,0.794972241,1684869333.70142,108980.0078125,18.239999771,,,,,,,,,,,,,,,,
1684869333.70144,,,,,,,,,,,,,0,1684869333.70144,-0.084823005,0.083252206,0.5,,,,,,,,,,,
1684869333.70146,,,,,,,,,,,,,,,,,,,,,-1,-1,0,0.008,0.136000007,-0.143999994,1684869333.70146,
1684869333.70146,,,,,,,,,,,,,,,,,,1,1684869333.70146,56.903999329,,,,,,,,
1684869333.70147,-0.00055272,-0.00093501,-0.00133649,1684869333.70147,3.355886459,-1.019749761,8.788387299,,,,,,,,,,,,,,,,,,,,,0.349138408
1684869333.74266,,,,,,,,-668.527893066,0.823862195,1684869333.74266,109269.9921875,18.239999771,,,,,,,,,,,,,,,,
1684869333.74268,,,,,,,,,,,,,0,1684869333.74268,-0.084823005,0.083252206,0.5,,,,,,,,,,,
1684869333.74273,,,,,,,,,,,,,,,,,,,,,-1,-1,0,0.008,0.136000007,-0.143999994,1684869333.74273,
1684869333.74274,,,,,,,,,,,,,,,,,,1,1684869333.74274,56.855998993,,,,,,,,
1684869333.74275,0.00009197,-0.0008928,-0.00128143,1684869333.74275,3.512885094,-1.089566588,8.656573296,,,,,,,,,,,,,,,,,,,,,0.366223859
1684869333.74585,,,,,,,,,,,,,,,,,,,,,,,,,,,,
1684869333.78226,,,,,,,,-691.21685791,0.852752149,1684869333.78226,109560,18.25,,,,,,,,,,,,,,,,
1684869333.78231,,,,,,,,,,,,,0,1684869333.78231,-0.084823005,0.083252206,0.5,,,,,,,,,,,
1684869333.78232,,,,,,,,,,,,,,,,,,,,,-1,-1,0,0.008,0.136000007,-0.143999994,1684869333.78232,
1684869333.78233,,,,,,,,,,,,,,,,,,1,1684869333.78233,56.833999634,,,,,,,,
1684869333.78234,0.00122889,-0.00072423,-0.00124164,1684869333.78234,3.462599516,-1.072260618,8.896374702,,,,,,,,,,,,,,,,,,,,,0.360739584
1684869333.82308,,,,,,,,-691.21685791,0.852752149,1684869333.82308,109560,18.25,,,,,,,,,,,,,,,,
1684869333.82311,,,,,,,,,,,,,0,1684869333.82311,-0.084823005,0.083252206,0.5,,,,,,,,,,,
1684869333.82312,,,,,,,,,,,,,,,,,,,,,-1,-1,0,0.008,0.128000006,-0.143999994,1684869333.82312,
1684869333.82313,,,,,,,,,,,,,,,,,,1,1684869333.82313,56.785999298,,,,,,,,
1684869333.82314,0.00202769,-0.00050702,-0.00124392,1684869333.82314,3.588361025,-0.99672842,8.901918411,,,,,,,,,,,,,,,,,,,,,0.37447723
1684869333.84098,,,,,,,,,,,,,,,,,,,,,,,,,,,,
1684869333.86239,,,,,,,,-736.450195313,0.910532057,1684869333.86238,110140,18.25,,,,,,,,,,,,,,,,
1684869333.8624,,,,,,,,,,,,,0,1684869333.8624,-0.084823005,0.083252206,0.5,,,,,,,,,,,
1684869333.86241,,,,,,,,,,,,,,,,,,,,,-1,-1,0.008,0,0.136000007,-0.143999994,1684869333.86241,
1684869333.86242,,,,,,,,,,,,,,,,,,1,1684869333.86242,56.738998413,,,,,,,,
1684869333.86243,0.0023858,-0.00034717,-0.00123611,1684869333.86242,3.489287615,-0.819737971,8.909184456,,,,,,,,,,,,,,,,,,,,,0.363648832
1684869333.90237,,,,,,,,-748.116577148,0.92547518,1684869333.90237,110290,18.25,,,,,,,,,,,,,,,,
1684869333.90238,,,,,,,,,,,,,0,1684869333.90238,-0.084823005,0.083252206,0.5,,,,,,,,,,,
1684869333.9024,,,,,,,,,,,,,,,,,,,,,-1,-1,0,0.008,0.136000007,-0.143999994,1684869333.9024,
1684869333.9024,,,,,,,,,,,,,,,,,,1,1684869333.9024,56.715000153,,,,,,,,
1684869333.90241,0.00266022,-0.00020517,-0.00126093,1684869333.90241,3.589157343,-0.719964504,8.762561798,,,,,,,,,,,,,,,,,,,,,0.37456445
1684869333.94212,,,,,,,,,,,,,,,,,,,,,,,,,,,,
1684869333.94266,,,,,,,,-770.635681152,0.954365134,1684869333.94266,110580.0078125,18.25,,,,,,,,,,,,,,,,
1684869333.94268,,,,,,,,,,,,,0,1684869333.94268,-0.131946892,0.130376101,0.5,,,,,,,,,,,
1684869333.94269,,,,,,,,,,,,,,,,,,,,,-1,-1,0.008,0,0.136000007,-0.143999994,1684869333.94269,
1684869333.9427,,,,,,,,,,,,,,,,,,1,1684869333.9427,56.667999268,,,,,,,,
1684869333.94271,0.00260077,-0.00005231,-0.00132236,1684869333.94271,3.643079758,-0.739479661,8.899942398,,,,,,,,,,,,,,,,,,,,,0.380477527
1684869333.98167,,,,,,,,-793.107055664,0.983255088,1684869333.98167,110869.9921875,18.25,,,,,,,,,,,,,,,,
1684869333.98169,,,,,,,,,,,,,0,1684869333.98169,-0.131946892,0.130376101,0.5,,,,,,,,,,,
1684869333.9817,,,,,,,,,,,,,,,,,,,,,-1,-1,0,0.008,0.136000007,-0.151999995,1684869333.9817,
1684869333.98171,,,,,,,,,,,,,,,,,,1,1684869333.98171,56.620998383,,,,,,,,
1684869333.98172,0.00283856,0.00009912,-0.00134743,1684869333.98172,3.573379517,-0.754443705,8.893898964,,,,,,,,,,,,,,,,,,,,,0.372836876
1684869334.02177,,,,,,,,-816.30267334,1.013141274,1684869334.02177,111169.9921875,18.25,,,,,,,,,,,,,,,,
1684869334.02179,,,,,,,,,,,,,0,1684869334.02179,-0.146084055,0.144513264,0.5,,,,,,,,,,,
1684869334.0218,,,,,,,,,,,,,,,,,,,,,-1,-1,0,0.008,0.136000007,-0.143999994,1684869334.0218,
1684869334.0218,,,,,,,,,,,,,,,,,,0,1684869334.0218,0,,,,,,,,
1684869334.02181,0.00308126,0.00035257,-0.00138175,1684869334.02181,3.521298647,-0.664507747,8.946331978,,,,,,,,,,,,,,,,,,,,,0.367142585
1684869334.04132,,,,,,,,,,,,,,,,,,,,,,,,,,,,
1684869334.06145,,,,,,,,-816.30267334,1.013141274,1684869334.06145,111169.9921875,18.25,,,,,,,,,,,,,,,,
1684869334.06147,,,,,,,,,,,,,0,1684869334.06147,-0.146084055,0.144513264,0.5,,,,,,,,,,,
1684869334.06148,,,,,,,,,,,,,,,,,,,,,-1,-1,0.016000001,-0.008,0.136000007,-0.143999994,1684869334.06148,
1684869334.06148,,,,,,,,,,,,,,,,,,1,1684869334.06148,56.549999237,,,,,,,,
1684869334.06149,0.00322621,0.00053708,-0.00140194,1684869334.06149,3.699191093,-0.49544996,9.064679146,,,,,,,,,,,,,,,,,,,,,0.386645527
1684869334.10257,,,,,,,,-827.110534668,1.027088165,1684869334.10257,111310,18.25,,,,,,,,,,,,,,,,
1684869334.10259,,,,,,,,,,,,,0,1684869334.10259,-0.155508831,0.15393804,0.5,,,,,,,,,,,
1684869334.10261,,,,,,,,,,,,,,,,,,,,,-1,-1,0.008,0,0.136000007,-0.143999994,1684869334.10261,
1684869334.10261,,,,,,,,,,,,,,,,,,1,1684869334.10261,56.501998901,,,,,,,,
1684869334.10262,0.0032876,0.00071785,-0.00137558,1684869334.10262,3.574062109,-0.43585676,8.865192413,,,,,,,,,,,,,,,,,,,,,0.372911591
1684869334.1438,,,,,,,,,,,,,,,,,,,,,,,,,,,,
1684869334.14511,,,,,,,,-872.536437988,1.085864305,1684869334.14511,111900,18.25,,,,,,,,,,,,,,,,
1684869334.14515,,,,,,,,,,,,,0,1684869334.14515,-0.155508831,0.15393804,0.5,,,,,,,,,,,
1684869334.14516,,,,,,,,,,,,,,,,,,,,,-1,-1,0,0.008,0.136000007,-0.143999994,1684869334.14516,
1684869334.14517,,,,,,,,,,,,,,,,,,1,1684869334.14517,56.455001831,,,,,,,,
1684869334.14518,0.0033256,0.00086613,-0.00138148,1684869334.14518,3.652633667,-0.41670984,9.00965786,,,,,,,,,,,,,,,,,,,,,0.381526652
1684869334.1821,,,,,,,,-883.28717041,1.099811196,1684869334.1821,112040,18.25,,,,,,,,,,,,,,,,
1684869334.18211,,,,,,,,,,,,,0,1684869334.18211,-0.155508831,0.15393804,0.5,,,,,,,,,,,
1684869334.18212,,,,,,,,,,,,,,,,,,,,,-1,-1,0,0.008,0.136000007,-0.143999994,1684869334.18212,
1684869334.18213,,,,,,,,,,,,,,,,,,1,1684869334.18213,56.431999207,,,,,,,,
1684869334.18213,0.00338166,0.00094008,-0.00137749,1684869334.18213,3.687297821,-0.366648287,8.857696533,,,,,,,,,,,,,,,,,,,,,0.385336882
1684869334.22204,,,,,,,,-906.287658691,1.129697323,1684869334.22204,112340,18.25,,,,,,,,,,,,,,,,
1684869334.22206,,,,,,,,,,,,,0,1684869334.22206,-0.166504413,0.164933607,0.5,,,,,,,,,,,
1684869334.22207,,,,,,,,,,,,,,,,,,,,,-1,-1,0,0.008,0.143999994,-0.151999995,1684869334.22207,
1684869334.22208,,,,,,,,,,,,,,,,,,1,1684869334.22208,56.383998871,,,,,,,,
1684869334.22209,0.00366042,0.00102154,-0.00139226,1684869334.22209,3.5532794,-0.275746137,8.997141838,,,,,,,,,,,,,,,,,,,,,0.370637727
1684869334.24166,,,,,,,,,,,,,,,,,,,,,,,,,,,,
1684869334.26214,,,,,,,,-928.473876953,1.158587337,1684869334.26214,112630.0078125,18.25,,,,,,,,,,,,,,,,
1684869334.26215,,,,,,,,,,,,,0,1684869334.26215,-0.166504413,0.164933607,0.5,,,,,,,,,,,
1684869334.26216,,,,,,,,,,,,,,,,,,,,,-1,-1,0.008,0,0.136000007,-0.143999994,1684869334.26216,
1684869334.26217,,,,,,,,,,,,,,,,,,1,1684869334.26217,56.337001801,,,,,,,,
1684869334.26218,0.00377699,0.00111322,-0.00143956,1684869334.26218,3.640692711,-0.078286856,9.060250282,,,,,,,,,,,,,,,,,,,,,0.380215472
1684869334.30202,,,,,,,,-950.612976074,1.18747735,1684869334.30202,112919.9921875,18.25,,,,,,,,,,,,,,,,
1684869334.30204,,,,,,,,,,,,,0,1684869334.30204,-0.166504413,0.164933607,0.5,,,,,,,,,,,
1684869334.30205,,,,,,,,,,,,,,,,,,,,,-1,-1,0,0.008,0.136000007,-0.143999994,1684869334.30205,
1684869334.30205,,,,,,,,,,,,,,,,,,1,1684869334.30205,56.313999176,,,,,,,,
1684869334.30206,0.00357782,0.00115184,-0.00143513,1684869334.30206,3.659804106,0.086858101,9.059177399,,,,,,,,,,,,,,,,,,,,,0.382314336
1684869334.34124,,,,,,,,,,,,,,,,,,,,,,,,,,,,
1684869334.34247,,,,,,,,-972.707946777,1.216367245,1684869334.34247,113210,18.260000229,,,,,,,,,,,,,,,,
1684869334.34249,,,,,,,,,,,,,0,1684869334.34249,-0.186924756,0.185353965,0.5,,,,,,,,,,,
1684869334.34251,,,,,,,,,,,,,,,,,,,,,-1,-1,0,0.008,0.136000007,-0.143999994,1684869334.34251,
1684869334.34252,,,,,,,,,,,,,,,,,,1,1684869334.34252,56.266998291,,,,,,,,
1684869334.34253,0.00393087,0.00125616,-0.00142224,1684869334.34253,3.519075632,0.03713154,9.169995308,,,,,,,,,,,,,,,,,,,,,0.366899809
1684869334.38212,,,,,,,,-994.756164551,1.245257258,1684869334.38212,113500,18.260000229,,,,,,,,,,,,,,,,
1684869334.38214,,,,,,,,,,,,,0,1684869334.38214,-0.215199098,0.213628307,0.5,,,,,,,,,,,
1684869334.38215,,,,,,,,,,,,,,,,,,,,,-1,-1,0,0.008,0.136000007,-0.143999994,1684869334.38215,
1684869334.38216,,,,,,,,,,,,,,,,,,1,1684869334.38216,56.220001221,,,,,,,,
