time,d_fin,actuators_stamp,p_fin,s_fin,thruster,angular_velocity/x,angular_velocity/y,angular_velocity/z,imu_stamp,linear_acceleration/x,linear_acceleration/y,linear_acceleration/z,/riptide_1/imu_broadcaster/imu_status/orientation/pitch_deg,roll_orientation/deg,orientation/w,orientation/x,orientation/y,orientation/yaw_deg,orientation/z,depth,pressure_stamp,pressure
1681203552.13898,0,1681203552.13898,0,0,0,,,,,,,,,,,,,,,,,
1681203552.139,,,,,,,,,,,,,,,,,,,,1,1681203552.139,111110
1681203552.13901,,,,,,0,0,0,1681203552.13901,0,0,9.8,0,0,1,0,0,0,0,,,
1681203552.17898,0,1681203552.17898,0,0,0,,,,,,,,,,,,,,,,,
1681203552.17898,,,,,,,,,,,,,,,,,,,,1,1681203552.17898,111110
1681203552.17899,,,,,,0,0,0,1681203552.17899,0,0,9.8,0,0,1,0,0,0,0,,,
1681203552.22061,0,1681203552.22061,0,0,0,,,,,,,,,,,,,,,,,
1681203552.22062,,,,,,,,,,,,,,,,,,,,1,1681203552.22062,111110
1681203552.22063,,,,,,0,0,0,1681203552.22063,0,0,9.8,0,0,1,0,0,0,0,,,
1681203552.26242,0,1681203552.26242,0,0,0,,,,,,,,,,,,,,,,,
1681203552.26243,,,,,,,,,,,,,,,,,,,,1,1681203552.26243,111110
1681203552.26244,,,,,,0,0,0,1681203552.26244,0,0,9.8,0,0,1,0,0,0,0,,,
1681203552.30314,0,1681203552.30314,0,0,0,,,,,,,,,,,,,,,,,
1681203552.30315,,,,,,,,,,,,,,,,,,,,1,1681203552.30315,111110
1681203552.30316,,,,,,0,0,0,1681203552.30316,0,0,9.8,0,0,1,0,0,0,0,,,
1681203552.34307,0,1681203552.34307,0,0,0,,,,,,,,,,,,,,,,,
1681203552.34308,,,,,,,,,,,,,,,,,,,,1,1681203552.34308,111110
1681203552.3431,,,,,,0,0,0,1681203552.3431,0,0,9.8,0,0,1,0,0,0,0,,,
1681203552.38315,0,1681203552.38315,0,0,0,,,,,,,,,,,,,,,,,
1681203552.38317,,,,,,,,,,,,,,,,,,,,1,1681203552.38317,111110
1681203552.38318,,,,,,0,0,0,1681203552.38318,0,0,9.8,0,0,1,0,0,0,0,,,
1681203552.42304,0,1681203552.42304,0,0,0,,,,,,,,,,,,,,,,,
1681203552.42307,,,,,,,,,,,,,,,,,,,,1,1681203552.42307,111110
1681203552.42308,,,,,,0,0,0,1681203552.42308,0,0,9.8,0,0,1,0,0,0,0,,,
1681203552.46166,0,1681203552.46166,0,0,0,,,,,,,,,,,,,,,,,
1681203552.46167,,,,,,,,,,,,,,,,,,,,1,1681203552.46167,111110
1681203552.46168,,,,,,0,0,0,1681203552.46168,0,0,9.8,0,0,1,0,0,0,0,,,
1681203552.50218,0,1681203552.50218,0,0,0,,,,,,,,,,,,,,,,,
1681203552.50219,,,,,,,,,,,,,,,,,,,,1,1681203552.50219,111110
1681203552.5022,,,,,,0,0,0,1681203552.5022,0,0,9.8,0,0,1,0,0,0,0,,,
1681203552.54308,0,1681203552.54308,0,0,0,,,,,,,,,,,,,,,,,
1681203552.5431,,,,,,,,,,,,,,,,,,,,1,1681203552.5431,111110
1681203552.54311,,,,,,0,0,0,1681203552.54311,0,0,9.8,0,0,1,0,0,0,0,,,
1681203552.58313,0,1681203552.58313,0,0,0,,,,,,,,,,,,,,,,,
1681203552.58314,,,,,,,,,,,,,,,,,,,,1,1681203552.58314,111110
1681203552.58316,,,,,,0,0,0,1681203552.58316,0,0,9.8,0,0,1,0,0,0,0,,,
1681203552.62311,0,1681203552.62311,0,0,0,,,,,,,,,,,,,,,,,
1681203552.62312,,,,,,,,,,,,,,,,,,,,1,1681203552.62312,111110
1681203552.62313,,,,,,0,0,0,1681203552.62313,0,0,9.8,0,0,1,0,0,0,0,,,
1681203552.66298,0,1681203552.66298,0,0,0,,,,,,,,,,,,,,,,,
1681203552.66299,,,,,,,,,,,,,,,,,,,,1,1681203552.66299,111110
1681203552.663,,,,,,0,0,0,1681203552.663,0,0,9.8,0,0,1,0,0,0,0,,,
1681203552.70307,0,1681203552.70307,0,0,0,,,,,,,,,,,,,,,,,
1681203552.70308,,,,,,,,,,,,,,,,,,,,1,1681203552.70308,111110
1681203552.70309,,,,,,0,0,0,1681203552.70309,0,0,9.8,0,0,1,0,0,0,0,,,
1681203552.74309,0,1681203552.74309,0,0,0,,,,,,,,,,,,,,,,,
1681203552.7431,,,,,,,,,,,,,,,,,,,,1,1681203552.7431,111110
1681203552.74311,,,,,,0,0,0,1681203552.74311,0,0,9.8,0,0,1,0,0,0,0,,,
1681203552.78237,0,1681203552.78237,0,0,0,,,,,,,,,,,,,,,,,
1681203552.78239,,,,,,,,,,,,,,,,,,,,1,1681203552.78239,111110
1681203552.78241,,,,,,0,0,0,1681203552.78241,0,0,9.8,0,0,1,0,0,0,0,,,
1681203552.82304,0,1681203552.82304,0,0,0,,,,,,,,,,,,,,,,,
1681203552.82305,,,,,,,,,,,,,,,,,,,,1,1681203552.82305,111110
1681203552.82307,,,,,,0,0,0,1681203552.82307,0,0,9.8,0,0,1,0,0,0,0,,,
1681203552.86344,0,1681203552.86344,0,0,0,,,,,,,,,,,,,,,,,
1681203552.86345,,,,,,,,,,,,,,,,,,,,1,1681203552.86345,111110
1681203552.86347,,,,,,0,0,0,1681203552.86347,0,0,9.8,0,0,1,0,0,0,0,,,
1681203552.90298,0,1681203552.90298,0,0,0,,,,,,,,,,,,,,,,,
1681203552.903,,,,,,,,,,,,,,,,,,,,1,1681203552.903,111110
1681203552.90301,,,,,,0,0,0,1681203552.90301,0,0,9.8,0,0,1,0,0,0,0,,,
1681203552.94245,0,1681203552.94245,0,0,0,,,,,,,,,,,,,,,,,
1681203552.94246,,,,,,,,,,,,,,,,,,,,1,1681203552.94246,111110
1681203552.94247,,,,,,0,0,0,1681203552.94247,0,0,9.8,0,0,1,0,0,0,0,,,
1681203552.98293,0,1681203552.98293,0,0,0,,,,,,,,,,,,,,,,,
1681203552.98295,,,,,,,,,,,,,,,,,,,,1,1681203552.98295,111110
1681203552.98296,,,,,,0,0,0,1681203552.98296,0,0,9.8,0,0,1,0,0,0,0,,,
1681203553.02316,0,1681203553.02316,0,0,0,,,,,,,,,,,,,,,,,
1681203553.02318,,,,,,,,,,,,,,,,,,,,1,1681203553.02318,111110
1681203553.0232,,,,,,0,0,0,1681203553.0232,0,0,9.8,0,0,1,0,0,0,0,,,
1681203553.06284,0,1681203553.06284,0,0,0,,,,,,,,,,,,,,,,,
1681203553.06285,,,,,,,,,,,,,,,,,,,,1,1681203553.06285,111110
1681203553.06286,,,,,,0,0,0,1681203553.06286,0,0,9.8,0,0,1,0,0,0,0,,,
1681203553.10297,0,1681203553.10297,0,0,0,,,,,,,,,,,,,,,,,
1681203553.10298,,,,,,,,,,,,,,,,,,,,1,1681203553.10298,111110
1681203553.10299,,,,,,0,0,0,1681203553.10299,0,0,9.8,0,0,1,0,0,0,0,,,
1681203553.1418,0,1681203553.1418,0,0,0,,,,,,,,,,,,,,,,,
1681203553.14181,,,,,,,,,,,,,,,,,,,,1,1681203553.14181,111110
1681203553.14182,,,,,,0,0,0,1681203553.14182,0,0,9.8,0,0,1,0,0,0,0,,,
1681203553.18248,0,1681203553.18248,0,0,0,,,,,,,,,,,,,,,,,
1681203553.18249,,,,,,,,,,,,,,,,,,,,1,1681203553.18249,111110
1681203553.18251,,,,,,0,0,0,1681203553.18251,0,0,9.8,0,0,1,0,0,0,0,,,
1681203553.2229,0,1681203553.2229,0,0,0,,,,,,,,,,,,,,,,,
1681203553.22291,,,,,,,,,,,,,,,,,,,,1,1681203553.22291,111110
1681203553.22293,,,,,,0,0,0,1681203553.22293,0,0,9.8,0,0,1,0,0,0,0,,,
1681203553.263,0,1681203553.263,0,0,0,,,,,,,,,,,,,,,,,
1681203553.26301,,,,,,,,,,,,,,,,,,,,1,1681203553.26301,111110
1681203553.26303,,,,,,0,0,0,1681203553.26303,0,0,9.8,0,0,1,0,0,0,0,,,
1681203553.30291,0,1681203553.30291,0,0,0,,,,,,,,,,,,,,,,,
1681203553.30292,,,,,,,,,,,,,,,,,,,,1,1681203553.30292,111110
1681203553.30293,,,,,,0,0,0,1681203553.30293,0,0,9.8,0,0,1,0,0,0,0,,,
1681203553.34311,0,1681203553.34311,0,0,0,,,,,,,,,,,,,,,,,
1681203553.34312,,,,,,,,,,,,,,,,,,,,1,1681203553.34312,111110
1681203553.34313,,,,,,0,0,0,1681203553.34313,0,0,9.8,0,0,1,0,0,0,0,,,
1681203553.38243,0,1681203553.38243,0,0,0,,,,,,,,,,,,,,,,,
1681203553.38246,,,,,,,,,,,,,,,,,,,,1,1681203553.38246,111110
1681203553.38248,,,,,,0,0,0,1681203553.38248,0,0,9.8,0,0,1,0,0,0,0,,,
1681203553.42308,0,1681203553.42308,0,0,0,,,,,,,,,,,,,,,,,
1681203553.42309,,,,,,,,,,,,,,,,,,,,1,1681203553.42309,111110
1681203553.4231,,,,,,0,0,0,1681203553.4231,0,0,9.8,0,0,1,0,0,0,0,,,
1681203553.46292,0,1681203553.46292,0,0,0,,,,,,,,,,,,,,,,,
1681203553.46294,,,,,,,,,,,,,,,,,,,,1,1681203553.46294,111110
1681203553.46295,,,,,,0,0,0,1681203553.46295,0,0,9.8,0,0,1,0,0,0,0,,,
1681203553.50336,0,1681203553.50336,0,0,0,,,,,,,,,,,,,,,,,
1681203553.50337,,,,,,,,,,,,,,,,,,,,1,1681203553.50337,111110
1681203553.50338,,,,,,0,0,0,1681203553.50338,0,0,9.8,0,0,1,0,0,0,0,,,
1681203553.54248,0,1681203553.54248,0,0,0,,,,,,,,,,,,,,,,,
1681203553.54249,,,,,,,,,,,,,,,,,,,,1,1681203553.54249,111110
1681203553.54251,,,,,,0,0,0,1681203553.54251,0,0,9.8,0,0,1,0,0,0,0,,,
1681203553.58303,0,1681203553.58303,0,0,0,,,,,,,,,,,,,,,,,
1681203553.58304,,,,,,,,,,,,,,,,,,,,1,1681203553.58304,111110
1681203553.58306,,,,,,0,0,0,1681203553.58306,0,0,9.8,0,0,1,0,0,0,0,,,
1681203553.62296,0,1681203553.62296,0,0,0,,,,,,,,,,,,,,,,,
1681203553.62297,,,,,,,,,,,,,,,,,,,,1,1681203553.62297,111110
1681203553.62298,,,,,,0,0,0,1681203553.62298,0,0,9.8,0,0,1,0,0,0,0,,,
1681203553.66301,0,1681203553.66301,0,0,0,,,,,,,,,,,,,,,,,
1681203553.66302,,,,,,,,,,,,,,,,,,,,1,1681203553.66302,111110
1681203553.66304,,,,,,0,0,0,1681203553.66304,0,0,9.8,0,0,1,0,0,0,0,,,
1681203553.70297,0,1681203553.70297,0,0,0,,,,,,,,,,,,,,,,,
1681203553.70298,,,,,,,,,,,,,,,,,,,,1,1681203553.70298,111110
1681203553.703,,,,,,0,0,0,1681203553.703,0,0,9.8,0,0,1,0,0,0,0,,,
1681203553.74235,0,1681203553.74235,0,0,0,,,,,,,,,,,,,,,,,
1681203553.74236,,,,,,,,,,,,,,,,,,,,1,1681203553.74236,111110
1681203553.74237,,,,,,0,0,0,1681203553.74237,0,0,9.8,0,0,1,0,0,0,0,,,
1681203553.78305,0,1681203553.78305,0,0,0,,,,,,,,,,,,,,,,,
1681203553.78306,,,,,,,,,,,,,,,,,,,,1,1681203553.78306,111110
1681203553.78308,,,,,,0,0,0,1681203553.78308,0,0,9.8,0,0,1,0,0,0,0,,,
1681203553.82295,0,1681203553.82295,0,0,0,,,,,,,,,,,,,,,,,
1681203553.82296,,,,,,,,,,,,,,,,,,,,1,1681203553.82296,111110
1681203553.82297,,,,,,0,0,0,1681203553.82297,0,0,9.8,0,0,1,0,0,0,0,,,
1681203553.86288,0,1681203553.86288,0,0,0,,,,,,,,,,,,,,,,,
1681203553.8629,,,,,,,,,,,,,,,,,,,,1,1681203553.8629,111110
1681203553.86292,,,,,,0,0,0,1681203553.86292,0,0,9.8,0,0,1,0,0,0,0,,,
1681203553.90333,0,1681203553.90333,0,0,0,,,,,,,,,,,,,,,,,
1681203553.90334,,,,,,,,,,,,,,,,,,,,1,1681203553.90334,111110
1681203553.90335,,,,,,0,0,0,1681203553.90335,0,0,9.8,0,0,1,0,0,0,0,,,
1681203553.94305,0,1681203553.94305,0,0,0,,,,,,,,,,,,,,,,,
1681203553.94306,,,,,,,,,,,,,,,,,,,,1,1681203553.94306,111110
1681203553.94307,,,,,,0,0,0,1681203553.94307,0,0,9.8,0,0,1,0,0,0,0,,,
1681203553.98307,0,1681203553.98307,0,0,0,,,,,,,,,,,,,,,,,
1681203553.98308,,,,,,,,,,,,,,,,,,,,1,1681203553.98308,111110
1681203553.98309,,,,,,0,0,0,1681203553.98309,0,0,9.8,0,0,1,0,0,0,0,,,
1681203554.02289,0,1681203554.02289,0,0,0,,,,,,,,,,,,,,,,,
1681203554.0229,,,,,,,,,,,,,,,,,,,,1,1681203554.0229,111110
1681203554.02291,,,,,,0,0,0,1681203554.02291,0,0,9.8,0,0,1,0,0,0,0,,,
1681203554.06292,0,1681203554.06292,0,0,0,,,,,,,,,,,,,,,,,
1681203554.06293,,,,,,,,,,,,,,,,,,,,1,1681203554.06293,111110
1681203554.06294,,,,,,0,0,0,1681203554.06294,0,0,9.8,0,0,1,0,0,0,0,,,
1681203554.10288,0,1681203554.10288,0,0,0,,,,,,,,,,,,,,,,,
1681203554.10289,,,,,,,,,,,,,,,,,,,,1,1681203554.10289,111110
1681203554.1029,,,,,,0,0,0,1681203554.1029,0,0,9.8,0,0,1,0,0,0,0,,,
1681203554.14291,0,1681203554.14291,0,0,0,,,,,,,,,,,,,,,,,
1681203554.14293,,,,,,,,,,,,,,,,,,,,1,1681203554.14293,111110
1681203554.14294,,,,,,0,0,0,1681203554.14294,0,0,9.8,0,0,1,0,0,0,0,,,
1681203554.18314,0,1681203554.18314,0,0,0,,,,,,,,,,,,,,,,,
1681203554.18315,,,,,,,,,,,,,,,,,,,,1,1681203554.18315,111110
1681203554.18316,,,,,,0,0,0,1681203554.18316,0,0,9.8,0,0,1,0,0,0,0,,,
1681203554.22286,0,1681203554.22286,0,0,0,,,,,,,,,,,,,,,,,
1681203554.22288,,,,,,,,,,,,,,,,,,,,1,1681203554.22288,111110
1681203554.2229,,,,,,0,0,0,1681203554.2229,0,0,9.8,0,0,1,0,0,0,0,,,
1681203554.26287,0,1681203554.26287,0,0,0,,,,,,,,,,,,,,,,,
1681203554.26289,,,,,,,,,,,,,,,,,,,,1,1681203554.26289,111110
1681203554.2629,,,,,,0,0,0,1681203554.2629,0,0,9.8,0,0,1,0,0,0,0,,,
1681203554.30314,0,1681203554.30314,0,0,0,,,,,,,,,,,,,,,,,
1681203554.30315,,,,,,,,,,,,,,,,,,,,1,1681203554.30315,111110
1681203554.30317,,,,,,0,0,0,1681203554.30317,0,0,9.8,0,0,1,0,0,0,0,,,
1681203554.34337,0,1681203554.34337,0,0,0,,,,,,,,,,,,,,,,,
1681203554.34338,,,,,,,,,,,,,,,,,,,,1,1681203554.34338,111110
1681203554.3434,,,,,,0,0,0,1681203554.3434,0,0,9.8,0,0,1,0,0,0,0,,,
1681203554.38291,0,1681203554.38291,0,0,0,,,,,,,,,,,,,,,,,
1681203554.38293,,,,,,,,,,,,,,,,,,,,1,1681203554.38293,111110
1681203554.38295,,,,,,0,0,0,1681203554.38295,0,0,9.8,0,0,1,0,0,0,0,,,
1681203554.42313,0,1681203554.42313,0,0,0,,,,,,,,,,,,,,,,,
1681203554.42315,,,,,,,,,,,,,,,,,,,,1,1681203554.42315,111110
1681203554.42317,,,,,,0,0,0,1681203554.42317,0,0,9.8,0,0,1,0,0,0,0,,,
1681203554.46247,0,1681203554.46247,0,0,0,,,,,,,,,,,,,,,,,
1681203554.46248,,,,,,,,,,,,,,,,,,,,1,1681203554.46248,111110
1681203554.46249,,,,,,0,0,0,1681203554.46249,0,0,9.8,0,0,1,0,0,0,0,,,
1681203554.50301,0,1681203554.50301,0,0,0,,,,,,,,,,,,,,,,,
1681203554.50302,,,,,,,,,,,,,,,,,,,,1,1681203554.50302,111110
1681203554.50303,,,,,,0,0,0,1681203554.50303,0,0,9.8,0,0,1,0,0,0,0,,,
1681203554.5428,0,1681203554.5428,0,0,0,,,,,,,,,,,,,,,,,
1681203554.54281,,,,,,,,,,,,,,,,,,,,1,1681203554.54281,111110
1681203554.54282,,,,,,0,0,0,1681203554.54282,0,0,9.8,0,0,1,0,0,0,0,,,
1681203554.58159,0,1681203554.58159,0,0,0,,,,,,,,,,,,,,,,,
1681203554.5816,,,,,,,,,,,,,,,,,,,,1,1681203554.5816,111110
1681203554.58161,,,,,,0,0,0,1681203554.58161,0,0,9.8,0,0,1,0,0,0,0,,,
1681203554.61984,0,1681203554.61984,0,0,0,,,,,,,,,,,,,,,,,
1681203554.61985,,,,,,,,,,,,,,,,,,,,1,1681203554.61985,111110
1681203554.61985,,,,,,0,0,0,1681203554.61985,0,0,9.8,0,0,1,0,0,0,0,,,
1681203554.65935,0,1681203554.65935,0,0,0,,,,,,,,,,,,,,,,,
1681203554.65936,,,,,,,,,,,,,,,,,,,,1,1681203554.65936,111110
1681203554.65936,,,,,,0,0,0,1681203554.65936,0,0,9.8,0,0,1,0,0,0,0,,,
1681203554.69924,0,1681203554.69924,0,0,0,,,,,,,,,,,,,,,,,
1681203554.69924,,,,,,,,,,,,,,,,,,,,1,1681203554.69924,111110
1681203554.69925,,,,,,0,0,0,1681203554.69925,0,0,9.8,0,0,1,0,0,0,0,,,
1681203554.73959,0,1681203554.73959,0,0,0,,,,,,,,,,,,,,,,,
1681203554.73959,,,,,,,,,,,,,,,,,,,,1,1681203554.73959,111110
1681203554.7396,,,,,,0,0,0,1681203554.7396,0,0,9.8,0,0,1,0,0,0,0,,,
1681203554.77961,0,1681203554.77961,0,0,0,,,,,,,,,,,,,,,,,
1681203554.77962,,,,,,,,,,,,,,,,,,,,1,1681203554.77962,111110
1681203554.77962,,,,,,0,0,0,1681203554.77962,0,0,9.8,0,0,1,0,0,0,0,,,
1681203554.8194,0,1681203554.8194,0,0,0,,,,,,,,,,,,,,,,,
1681203554.8194,,,,,,,,,,,,,,,,,,,,1,1681203554.8194,111110
1681203554.8194,,,,,,0,0,0,1681203554.8194,0,0,9.8,0,0,1,0,0,0,0,,,
1681203554.8589,0,1681203554.8589,0,0,0,,,,,,,,,,,,,,,,,
1681203554.8589,,,,,,,,,,,,,,,,,,,,1,1681203554.8589,111110
1681203554.85891,,,,,,0,0,0,1681203554.85891,0,0,9.8,0,0,1,0,0,0,0,,,
1681203554.8994,0,1681203554.8994,0,0,0,,,,,,,,,,,,,,,,,
1681203554.8994,,,,,,,,,,,,,,,,,,,,1,1681203554.8994,111110
1681203554.89941,,,,,,0,0,0,1681203554.89941,0,0,9.8,0,0,1,0,0,0,0,,,
1681203554.94041,0,1681203554.94041,0,0,0,,,,,,,,,,,,,,,,,
1681203554.94042,,,,,,,,,,,,,,,,,,,,1,1681203554.94042,111110
1681203554.94042,,,,,,0,0,0,1681203554.94042,0,0,9.8,0,0,1,0,0,0,0,,,
1681203554.98036,0,1681203554.98036,0,0,0,,,,,,,,,,,,,,,,,
1681203554.98036,,,,,,,,,,,,,,,,,,,,1,1681203554.98036,111110
1681203554.98037,,,,,,0,0,0,1681203554.98037,0,0,9.8,0,0,1,0,0,0,0,,,
1681203555.0204,0,1681203555.0204,0,0,0,,,,,,,,,,,,,,,,,
1681203555.02041,,,,,,,,,,,,,,,,,,,,1,1681203555.02041,111110
1681203555.02042,,,,,,0,0,0,1681203555.02042,0,0,9.8,0,0,1,0,0,0,0,,,
1681203555.06065,0,1681203555.06065,0,0,0,,,,,,,,,,,,,,,,,
1681203555.06066,,,,,,,,,,,,,,,,,,,,1,1681203555.06066,111110
1681203555.06067,,,,,,0,0,0,1681203555.06067,0,0,9.8,0,0,1,0,0,0,0,,,
1681203555.10054,0,1681203555.10054,0,0,0,,,,,,,,,,,,,,,,,
1681203555.10056,,,,,,,,,,,,,,,,,,,,1,1681203555.10056,111110
1681203555.10057,,,,,,0,0,0,1681203555.10057,0,0,9.8,0,0,1,0,0,0,0,,,
1681203555.13892,0,1681203555.13892,0,0,0,,,,,,,,,,,,,,,,,
1681203555.13892,,,,,,,,,,,,,,,,,,,,1,1681203555.13892,111110
1681203555.13893,,,,,,0,0,0,1681203555.13893,0,0,9.8,0,0,1,0,0,0,0,,,
1681203555.17897,0,1681203555.17897,0,0,0,,,,,,,,,,,,,,,,,
1681203555.17897,,,,,,,,,,,,,,,,,,,,1,1681203555.17897,111110
1681203555.17898,,,,,,0,0,0,1681203555.17898,0,0,9.8,0,0,1,0,0,0,0,,,
1681203555.21876,0,1681203555.21876,0,0,0,,,,,,,,,,,,,,,,,
1681203555.21877,,,,,,,,,,,,,,,,,,,,1,1681203555.21877,111110
1681203555.21877,,,,,,0,0,0,1681203555.21877,0,0,9.8,0,0,1,0,0,0,0,,,
1681203555.259,0,1681203555.259,0,0,0,,,,,,,,,,,,,,,,,
1681203555.25901,,,,,,,,,,,,,,,,,,,,1,1681203555.25901,111110
1681203555.25902,,,,,,0,0,0,1681203555.25902,0,0,9.8,0,0,1,0,0,0,0,,,
1681203555.29998,0,1681203555.29998,0,0,0,,,,,,,,,,,,,,,,,
1681203555.29999,,,,,,,,,,,,,,,,,,,,1,1681203555.29999,111110
1681203555.3,,,,,,0,0,0,1681203555.3,0,0,9.8,0,0,1,0,0,0,0,,,
1681203555.34299,0,1681203555.34299,0,0,0,,,,,,,,,,,,,,,,,
1681203555.343,,,,,,,,,,,,,,,,,,,,1,1681203555.343,111110
1681203555.34302,,,,,,0,0,0,1681203555.34302,0,0,9.8,0,0,1,0,0,0,0,,,
1681203555.38299,0,1681203555.38299,0,0,0,,,,,,,,,,,,,,,,,
1681203555.383,,,,,,,,,,,,,,,,,,,,1,1681203555.383,111110
1681203555.38301,,,,,,0,0,0,1681203555.38301,0,0,9.8,0,0,1,0,0,0,0,,,
1681203555.42337,0,1681203555.42337,0,0,0,,,,,,,,,,,,,,,,,
1681203555.42338,,,,,,,,,,,,,,,,,,,,1,1681203555.42338,111110
1681203555.4234,,,,,,0,0,0,1681203555.4234,0,0,9.8,0,0,1,0,0,0,0,,,
1681203555.46301,0,1681203555.46301,0,0,0,,,,,,,,,,,,,,,,,
1681203555.46302,,,,,,,,,,,,,,,,,,,,1,1681203555.46302,111110
1681203555.46303,,,,,,0,0,0,1681203555.46303,0,0,9.8,0,0,1,0,0,0,0,,,
1681203555.50217,0,1681203555.50217,0,0,0,,,,,,,,,,,,,,,,,
1681203555.50218,,,,,,,,,,,,,,,,,,,,1,1681203555.50218,111110
1681203555.5022,,,,,,0,0,0,1681203555.5022,0,0,9.8,0,0,1,0,0,0,0,,,
1681203555.54302,0,1681203555.54302,0,0,0,,,,,,,,,,,,,,,,,
1681203555.54303,,,,,,,,,,,,,,,,,,,,1,1681203555.54303,111110
1681203555.54304,,,,,,0,0,0,1681203555.54304,0,0,9.8,0,0,1,0,0,0,0,,,
1681203555.5823,0,1681203555.5823,0,0,0,,,,,,,,,,,,,,,,,
1681203555.58231,,,,,,,,,,,,,,,,,,,,1,1681203555.58231,111110
1681203555.58232,,,,,,0,0,0,1681203555.58232,0,0,9.8,0,0,1,0,0,0,0,,,
1681203555.62285,0,1681203555.62285,0,0,0,,,,,,,,,,,,,,,,,
1681203555.62287,,,,,,,,,,,,,,,,,,,,1,1681203555.62287,111110
1681203555.62288,,,,,,0,0,0,1681203555.62288,0,0,9.8,0,0,1,0,0,0,0,,,
1681203555.66293,0,1681203555.66293,0,0,0,,,,,,,,,,,,,,,,,
1681203555.66295,,,,,,,,,,,,,,,,,,,,1,1681203555.66295,111110
1681203555.66296,,,,,,0,0,0,1681203555.66296,0,0,9.8,0,0,1,0,0,0,0,,,
1681203555.70286,0,1681203555.70286,0,0,0,,,,,,,,,,,,,,,,,
1681203555.70287,,,,,,,,,,,,,,,,,,,,1,1681203555.70287,111110
1681203555.70289,,,,,,0,0,0,1681203555.70289,0,0,9.8,0,0,1,0,0,0,0,,,
1681203555.74216,0,1681203555.74216,0,0,0,,,,,,,,,,,,,,,,,
1681203555.74217,,,,,,,,,,,,,,,,,,,,1,1681203555.74217,111110
1681203555.74218,,,,,,0,0,0,1681203555.74218,0,0,9.8,0,0,1,0,0,0,0,,,
1681203555.78278,0,1681203555.78278,0,0,0,,,,,,,,,,,,,,,,,
1681203555.78279,,,,,,,,,,,,,,,,,,,,1,1681203555.78279,111110
1681203555.7828,,,,,,0,0,0,1681203555.7828,0,0,9.8,0,0,1,0,0,0,0,,,
1681203555.82293,0,1681203555.82293,0.022744,-0.022744,100,,,,,,,,,,,,,,,,,
1681203555.82294,,,,,,,,,,,,,,,,,,,,1.000001,1681203555.82294,111110.007813
1681203555.82295,,,,,,0,0.054234,0,1681203555.82295,4.944404,0,9.790459,0.043809,0,1,0,0.000382,0,0,,,
1681203555.86314,0,1681203555.86314,0.033704,-0.033704,100,,,,,,,,,,,,,,,,,
1681203555.86316,,,,,,,,,,,,,,,,,,,,1.000033,1681203555.86316,111110.320313
1681203555.86317,,,,,,0,0.193874,0,1681203555.86317,4.422817,0,9.729178,0.341745,0,0.999996,0,0.002982,0,0,,,
1681203555.90308,0,1681203555.90308,0.066377,-0.066377,100,,,,,,,,,,,,,,,,,
1681203555.9031,,,,,,,,,,,,,,,,,,,,1.00025,1681203555.9031,111112.460938
1681203555.90311,,,,,,0,0.55991,0,1681203555.90311,3.558908,0,9.50203,1.229074,0,0.999942,0,0.010725,0,0,,,
1681203555.943,0,1681203555.943,0.082131,-0.082131,100,,,,,,,,,,,,,,,,,
1681203555.94301,,,,,,,,,,,,,,,,,,,,1.001078,1681203555.94301,111120.570313
1681203555.94302,,,,,,0,0.903627,0,1681203555.94302,2.470027,0,9.189418,2.971015,0,0.999664,0,0.025924,0,0,,,
1681203555.98244,0,1681203555.98244,0.089046,-0.089046,100,,,,,,,,,,,,,,,,,
1681203555.98245,,,,,,,,,,,,,,,,,,,,1.003094,1681203555.98245,111140.351563
1681203555.98246,,,,,,0,1.159955,0,1681203555.98246,1.317584,0,8.871328,5.38869,0,0.998895,0,0.047008,0,0,,,
1681203556.02315,0,1681203556.02315,0.07917,-0.07917,100,,,,,,,,,,,,,,,,,
1681203556.02317,,,,,,,,,,,,,,,,,,,,1.006798,1681203556.02317,111176.6875
1681203556.02318,,,,,,0,1.152068,0,1681203556.02318,0.244464,0,8.737228,8.062484,0,0.997526,0,0.0703,0,0,,,
1681203556.06395,0,1681203556.06395,0.07454,-0.07454,100,,,,,,,,,,,,,,,,,
1681203556.06397,,,,,,,,,,,,,,,,,,,,1.012377,1681203556.06397,111231.421875
1681203556.06399,,,,,,0,1.144177,0,1681203556.06399,-0.678504,0,8.609459,10.688319,0,0.995653,0,0.093138,0,0,,,
1681203556.10306,0,1681203556.10306,0.059717,-0.059717,100,,,,,,,,,,,,,,,,,
1681203556.10307,,,,,,,,,,,,,,,,,,,,1.019846,1681203556.10307,111304.6875
1681203556.10309,,,,,,0,0.97745,0,1681203556.10309,-1.435884,0,8.636639,13.103078,0,0.99347,0,0.114097,0,0,,,
1681203556.14282,0,1681203556.14282,0.052793,-0.052793,100,,,,,,,,,,,,,,,,,
1681203556.14283,,,,,,,,,,,,,,,,,,,,1.029012,1681203556.14283,111394.601563
1681203556.14284,,,,,,0,0.880629,0,1681203556.14284,-2.03549,0,8.616251,15.204847,0,0.99121,0,0.132298,0,0,,,
1681203556.18311,0,1681203556.18311,0.049458,-0.049458,100,,,,,,,,,,,,,,,,,
1681203556.18312,,,,,,,,,,,,,,,,,,,,1.039695,1681203556.18312,111499.414063
1681203556.18314,,,,,,0,0.836002,0,1681203556.18314,-2.530678,0,8.551287,17.158914,0,0.98881,0,0.149181,0,0,,,
1681203556.22228,0,1681203556.22228,0.036894,-0.036894,100,,,,,,,,,,,,,,,,,
1681203556.2223,,,,,,,,,,,,,,,,,,,,1.051746,1681203556.2223,111617.632813
1681203556.22232,,,,,,0,0.627714,0,1681203556.22232,-2.918483,0,8.659179,18.811367,0,0.986556,0,0.163424,0,0,,,
1681203556.26305,0,1681203556.26305,0.029026,-0.029026,100,,,,,,,,,,,,,,,,,
1681203556.26307,,,,,,,,,,,,,,,,,,,,1.064867,1681203556.26307,111746.34375
1681203556.2631,,,,,,0,0.508072,0,1681203556.2631,-3.203421,0,8.700699,20.079561,0,0.984687,0,0.174332,0,0,,,
1681203556.30213,0,1681203556.30213,0.021668,-0.021668,100,,,,,,,,,,,,,,,,,
1681203556.30214,,,,,,,,,,,,,,,,,,,,1.078821,1681203556.30214,111883.226563
1681203556.30215,,,,,,0,0.373747,0,1681203556.30215,-3.415336,0,8.772627,21.066065,0,0.98315,0,0.182802,0,0,,,
1681203556.34187,0,1681203556.34187,0.017405,-0.017405,100,,,,,,,,,,,,,,,,,
1681203556.34188,,,,,,,,,,,,,,,,,,,,1.093399,1681203556.34188,112026.242188
1681203556.3419,,,,,,0,0.301315,0,1681203556.3419,-3.571293,0,8.796659,21.819422,0,0.981927,0,0.189262,0,0,,,
1681203556.38314,0,1681203556.38314,0.015186,-0.015186,100,,,,,,,,,,,,,,,,,
1681203556.38315,,,,,,,,,,,,,,,,,,,,1.10847,1681203556.38315,112174.085938
1681203556.38318,,,,,,0,0.26641,0,1681203556.38318,-3.696794,0,8.789646,22.460228,0,0.980853,0,0.19475,0,0,,,
1681203556.42182,0,1681203556.42182,0.010946,-0.010946,100,,,,,,,,,,,,,,,,,
1681203556.42186,,,,,,,,,,,,,,,,,,,,1.123953,1681203556.42186,112325.976563
1681203556.42188,,,,,,0,0.190254,0,1681203556.42188,-3.793575,0,8.831828,22.972687,0,0.979972,0,0.199134,0,0,,,
1681203556.46313,0,1681203556.46313,0.008292,-0.008292,100,,,,,,,,,,,,,,,,,
1681203556.46314,,,,,,,,,,,,,,,,,,,,1.139741,1681203556.46314,112480.859375
1681203556.46316,,,,,,0,0.147731,0,1681203556.46316,-3.863181,0,8.849102,23.348116,0,0.979315,0,0.202344,0,0,,,
1681203556.50304,0,1681203556.50304,0.005875,-0.005875,100,,,,,,,,,,,,,,,,,
1681203556.50305,,,,,,,,,,,,,,,,,,,,1.155758,1681203556.50305,112637.984375
1681203556.50307,,,,,,0,0.106028,0,1681203556.50307,-3.914556,0,8.871644,23.630978,0,0.978812,0,0.204761,0,0,,,
1681203556.54445,0,1681203556.54445,0.004711,-0.004711,100,,,,,,,,,,,,,,,,,
1681203556.54446,,,,,,,,,,,,,,,,,,,,1.171943,1681203556.54446,112796.757813
1681203556.54447,,,,,,0,0.083861,0,1681203556.54447,-3.952295,0,8.879336,23.842384,0,0.978433,0,0.206566,0,0,,,
1681203556.58306,0,1681203556.58306,0.00415,-0.00415,100,,,,,,,,,,,,,,,,,
1681203556.58307,,,,,,,,,,,,,,,,,,,,1.188258,1681203556.58307,112956.8125
1681203556.58308,,,,,,0,0.073183,0,1681203556.58308,-3.983034,0,8.877775,24.019359,0,0.978112,0,0.208077,0,0,,,
1681203556.62297,0,1681203556.62297,0.002854,-0.002854,100,,,,,,,,,,,,,,,,,
1681203556.62298,,,,,,,,,,,,,,,,,,,,1.204682,1681203556.62298,113117.929688
1681203556.62299,,,,,,0,0.051752,0,1681203556.62299,-4.006933,0,8.889549,24.159395,0,0.977857,0,0.209272,0,0,,,
1681203556.66292,0,1681203556.66292,0.00223,-0.00223,100,,,,,,,,,,,,,,,,,
1681203556.66294,,,,,,,,,,,,,,,,,,,,1.221186,1681203556.66294,113279.828125
1681203556.66296,,,,,,0,0.039839,0,1681203556.66296,-4.024132,0,8.894402,24.261023,0,0.977671,0,0.210139,0,0,,,
1681203556.70335,0,1681203556.70335,0.001534,-0.001534,100,,,,,,,,,,,,,,,,,
1681203556.70337,,,,,,,,,,,,,,,,,,,,1.237749,1681203556.70337,113442.320313
1681203556.70338,,,,,,0,0.027815,0,1681203556.70338,-4.036756,0,8.901202,24.336292,0,0.977533,0,0.210781,0,0,,,
1681203556.74227,0,1681203556.74227,0.001228,-0.001228,100,,,,,,,,,,,,,,,,,
1681203556.74228,,,,,,,,,,,,,,,,,,,,1.254355,1681203556.74228,113605.226563
1681203556.74229,,,,,,0,0.02141,0,1681203556.74229,-4.045856,0,8.903794,24.39091,0,0.977433,0,0.211247,0,0,,,
1681203556.78301,0,1681203556.78301,0.001037,-0.001037,100,,,,,,,,,,,,,,,,,
1681203556.78302,,,,,,,,,,,,,,,,,,,,1.270994,1681203556.78302,113768.445313
1681203556.78303,,,,,,0,0.018325,0,1681203556.78303,-4.053203,0,8.90374,24.435581,0,0.97735,0,0.211628,0,0,,,
1681203556.82302,0,1681203556.82302,0.000607,-0.000607,100,,,,,,,,,,,,,,,,,
1681203556.82303,,,,,,,,,,,,,,,,,,,,1.287659,1681203556.82303,113931.929688
1681203556.82304,,,,,,0,0.011251,0,1681203556.82304,-4.058583,0,8.90853,24.468477,0,0.977289,0,0.211909,0,0,,,
1681203556.86298,0,1681203556.86298,0.0004,-0.0004,100,,,,,,,,,,,,,,,,,
1681203556.86299,,,,,,,,,,,,,,,,,,,,1.304341,1681203556.86299,114095.585938
1681203556.86301,,,,,,0,0.007299,0,1681203556.86301,-4.061891,0,8.91108,24.48863,0,0.977252,0,0.212081,0,0,,,
1681203556.90304,0,1681203556.90304,0.000139,-0.000139,100,,,,,,,,,,,,,,,,,
1681203556.90305,,,,,,,,,,,,,,,,,,,,1.321034,1681203556.90305,114259.34375
1681203556.90306,,,,,,0,0.00282,0,1681203556.90306,-4.063684,0,8.914822,24.499427,0,0.977232,0,0.212173,0,0,,,
1681203556.94332,0,1681203556.94332,0.000012,-0.000012,100,,,,,,,,,,,,,,,,,
1681203556.94333,,,,,,,,,,,,,,,,,,,,1.337731,1681203556.94333,114423.140625
1681203556.94334,,,,,,0,0.000412,0,1681203556.94334,-4.06423,0,8.917032,24.502458,0,0.977227,0,0.212199,0,0,,,
1681203556.98299,0,1681203556.98299,-0.000048,0.000048,100,,,,,,,,,,,,,,,,,
1681203556.983,,,,,,,,,,,,,,,,,,,,1.354429,1681203556.983,114586.953125
1681203556.98301,,,,,,0,-0.000749,0,1681203556.98301,-4.064169,0,8.91825,24.501747,0,0.977228,0,0.212193,0,0,,,
1681203557.02338,0,1681203557.02338,-0.000249,0.000249,100,,,,,,,,,,,,,,,,,
1681203557.02339,,,,,,,,,,,,,,,,,,,,1.371126,1681203557.02339,114750.75
1681203557.0234,,,,,,0,-0.004033,0,1681203557.0234,-4.063281,0,8.921976,24.495829,0,0.977239,0,0.212142,0,0,,,
1681203557.06295,0,1681203557.06295,-0.000346,0.000346,100,,,,,,,,,,,,,,,,,
1681203557.06296,,,,,,,,,,,,,,,,,,,,1.387817,1681203557.06296,114914.484375
1681203557.06298,,,,,,0,-0.00588,0,1681203557.06298,-4.061454,0,8.924677,24.483953,0,0.977261,0,0.212041,0,0,,,
1681203557.10232,0,1681203557.10232,-0.000472,0.000472,100,,,,,,,,,,,,,,,,,
1681203557.10233,,,,,,,,,,,,,,,,,,,,1.404499,1681203557.10233,115078.140625
1681203557.10235,,,,,,0,-0.008222,0,1681203557.10235,-4.05889,0,8.928207,24.467394,0,0.977291,0,0.2119,0,0,,,
1681203557.14296,0,1681203557.14296,-0.00055,0.00055,100,,,,,,,,,,,,,,,,,
1681203557.14297,,,,,,,,,,,,,,,,,,,,1.42117,1681203557.14297,115241.679688
1681203557.14299,,,,,,0,-0.009491,0,1681203557.14299,-4.055684,0,8.930947,24.446742,0,0.97733,0,0.211723,0,0,,,
1681203557.18293,0,1681203557.18293,-0.000582,0.000582,100,,,,,,,,,,,,,,,,,
1681203557.18295,,,,,,,,,,,,,,,,,,,,1.437827,1681203557.18295,115405.078125
1681203557.18297,,,,,,0,-0.010102,0,1681203557.18297,-4.052168,0,8.933163,24.42412,0,0.977371,0,0.211531,0,0,,,
1681203557.22294,0,1681203557.22294,-0.000706,0.000706,100,,,,,,,,,,,,,,,,,
1681203557.22295,,,,,,,,,,,,,,,,,,,,1.454468,1681203557.22295,115568.328125
1681203557.22296,,,,,,0,-0.012112,0,1681203557.22296,-4.048167,0,8.937005,24.398403,0,0.977419,0,0.211311,0,0,,,
1681203557.26236,0,1681203557.26236,-0.00076,0.00076,100,,,,,,,,,,,,,,,,,
1681203557.26238,,,,,,,,,,,,,,,,,,,,1.471092,1681203557.26238,115731.414063
1681203557.26239,,,,,,0,-0.013248,0,1681203557.26239,-4.043593,0,8.940222,24.369026,0,0.977473,0,0.211061,0,0,,,
1681203557.30211,0,1681203557.30211,-0.000848,0.000848,100,,,,,,,,,,,,,,,,,
1681203557.30213,,,,,,,,,,,,,,,,,,,,1.487696,1681203557.30213,115894.296875
1681203557.30215,,,,,,0,-0.014788,0,1681203557.30215,-4.038548,0,8.944057,24.336642,0,0.977533,0,0.210784,0,0,,,
1681203557.34244,0,1681203557.34244,-0.000896,0.000896,100,,,,,,,,,,,,,,,,,
1681203557.34246,,,,,,,,,,,,,,,,,,,,1.504279,1681203557.34246,116056.976563
1681203557.34247,,,,,,0,-0.015627,0,1681203557.34247,-4.033081,0,8.947372,24.301555,0,0.977597,0,0.210485,0,0,,,
1681203557.38317,0,1681203557.38317,-0.000921,0.000921,100,,,,,,,,,,,,,,,,,
1681203557.38319,,,,,,,,,,,,,,,,,,,,1.520838,1681203557.38319,116219.429688
1681203557.38321,,,,,,0,-0.016031,0,1681203557.38321,-4.027408,0,8.950339,24.265165,0,0.977664,0,0.210175,0,0,,,
1681203557.42329,0,1681203557.42329,-0.001011,0.001011,100,,,,,,,,,,,,,,,,,
1681203557.42331,,,,,,,,,,,,,,,,,,,,1.537375,1681203557.42331,116381.640625
1681203557.42335,,,,,,0,-0.017484,0,1681203557.42335,-4.02139,0,8.954512,24.226574,0,0.977735,0,0.209845,0,0,,,
1681203557.46295,0,1681203557.46295,-0.001054,0.001054,100,,,,,,,,,,,,,,,,,
1681203557.46296,,,,,,,,,,,,,,,,,,,,1.553885,1681203557.46296,116543.609375
1681203557.46298,,,,,,0,-0.018307,0,1681203557.46298,-4.014956,0,8.958233,24.185331,0,0.97781,0,0.209493,0,0,,,
1681203557.50249,0,1681203557.50249,-0.001117,0.001117,100,,,,,,,,,,,,,,,,,
1681203557.5025,,,,,,,,,,,,,,,,,,,,1.570368,1681203557.5025,116705.3125
1681203557.50251,,,,,,0,-0.019476,0,1681203557.50251,-4.00817,0,8.962455,24.141844,0,0.977889,0,0.209122,0,0,,,
1681203557.5429,0,1681203557.5429,-0.001157,0.001157,100,,,,,,,,,,,,,,,,,
1681203557.54291,,,,,,,,,,,,,,,,,,,,1.586823,1681203557.54291,116866.734375
1681203557.54292,,,,,,0,-0.020115,0,1681203557.54292,-4.00106,0,8.966281,24.096297,0,0.977973,0,0.208734,0,0,,,
1681203557.58285,0,1681203557.58285,-0.001173,0.001173,100,,,,,,,,,,,,,,,,,
1681203557.58286,,,,,,,,,,,,,,,,,,,,1.603249,1681203557.58286,117027.867188
1681203557.58289,,,,,,0,-0.020422,0,1681203557.58289,-3.993793,0,8.969837,24.049759,0,0.978057,0,0.208336,0,0,,,
1681203557.62217,0,1681203557.62217,-0.001239,0.001239,100,,,,,,,,,,,,,,,,,
1681203557.62219,,,,,,,,,,,,,,,,,,,,1.619644,1681203557.62219,117188.703125
1681203557.6222,,,,,,0,-0.021607,0,1681203557.6222,-3.986245,0,8.974394,24.001448,0,0.978145,0,0.207924,0,0,,,
1681203557.66317,0,1681203557.66317,-0.001281,0.001281,100,,,,,,,,,,,,,,,,,
1681203557.66318,,,,,,,,,,,,,,,,,,,,1.636007,1681203557.66318,117349.234375
1681203557.6632,,,,,,0,-0.022279,0,1681203557.6632,-3.978357,0,8.978578,23.950972,0,0.978236,0,0.207493,0,0,,,
1681203557.70304,0,1681203557.70304,-0.00134,0.00134,100,,,,,,,,,,,,,,,,,
1681203557.70306,,,,,,,,,,,,,,,,,,,,1.652338,1681203557.70306,117509.429688
1681203557.70307,,,,,,0,-0.023272,0,1681203557.70307,-3.970171,0,8.98321,23.898615,0,0.978331,0,0.207046,0,0,,,
1681203557.74217,0,1681203557.74217,-0.001366,0.001366,100,,,,,,,,,,,,,,,,,
1681203557.74219,,,,,,,,,,,,,,,,,,,,1.668634,1681203557.74219,117669.296875
1681203557.7422,,,,,,0,-0.023815,0,1681203557.7422,-3.961708,0,8.987502,23.844506,0,0.978429,0,0.206584,0,0,,,
1681203557.7829,0,1681203557.7829,-0.001382,0.001382,100,,,,,,,,,,,,,,,,,
1681203557.78291,,,,,,,,,,,,,,,,,,,,1.684895,1681203557.78291,117828.820313
1681203557.78292,,,,,,0,-0.024077,0,1681203557.78292,-3.953109,0,8.991561,23.789552,0,0.978528,0,0.206115,0,0,,,
1681203557.82223,0,1681203557.82223,-0.001442,0.001442,100,,,,,,,,,,,,,,,,,
1681203557.82224,,,,,,,,,,,,,,,,,,,,1.701121,1681203557.82224,117988
1681203557.82225,,,,,,0,-0.025146,0,1681203557.82225,-3.944258,0,8.996533,23.733014,0,0.978629,0,0.205632,0,0,,,
1681203557.86295,0,1681203557.86295,-0.00148,0.00148,100,,,,,,,,,,,,,,,,,
1681203557.86296,,,,,,,,,,,,,,,,,,,,1.71731,1681203557.86296,118146.804688
1681203557.86297,,,,,,0,-0.025752,0,1681203557.86297,-3.935097,0,9.001166,23.67452,0,0.978734,0,0.205133,0,0,,,
1681203557.90212,0,1681203557.90212,-0.00153,0.00153,100,,,,,,,,,,,,,,,,,
1681203557.90213,,,,,,,,,,,,,,,,,,,,1.73346,1681203557.90213,118305.242188
1681203557.90215,,,,,,0,-0.026679,0,1681203557.90215,-3.92566,0,9.006231,23.61429,0,0.978842,0,0.204618,0,0,,,
1681203557.94205,0,1681203557.94205,-0.001559,0.001559,100,,,,,,,,,,,,,,,,,
1681203557.94207,,,,,,,,,,,,,,,,,,,,1.749571,1681203557.94207,118463.296875
1681203557.94208,,,,,,0,-0.027188,0,1681203557.94208,-3.915962,0,9.010976,23.552422,0,0.978952,0,0.20409,0,0,,,
1681203557.98302,0,1681203557.98302,-0.001575,0.001575,100,,,,,,,,,,,,,,,,,
1681203557.98303,,,,,,,,,,,,,,,,,,,,1.765642,1681203557.98303,118620.953125
1681203557.98305,,,,,,0,-0.027432,0,1681203557.98305,-3.906135,0,9.0155,23.489763,0,0.979064,0,0.203554,0,0,,,
1681203558.02303,0,1681203558.02303,-0.001639,0.001639,100,,,,,,,,,,,,,,,,,
1681203558.02306,,,,,,,,,,,,,,,,,,,,1.781673,1681203558.02306,118778.210938
1681203558.02307,,,,,,0,-0.028478,0,1681203558.02307,-3.896062,0,9.020924,23.425565,0,0.979178,0,0.203006,0,0,,,
1681203558.06303,0,1681203558.06303,-0.00167,0.00167,100,,,,,,,,,,,,,,,,,
1681203558.06304,,,,,,,,,,,,,,,,,,,,1.797661,1681203558.06304,118935.054688
1681203558.06306,,,,,,0,-0.029072,0,1681203558.06306,-3.885683,0,9.026011,23.359451,0,0.979295,0,0.202441,0,0,,,
1681203558.10327,0,1681203558.10327,-0.001726,0.001726,100,,,,,,,,,,,,,,,,,
1681203558.10328,,,,,,,,,,,,,,,,,,,,1.813607,1681203558.10328,119091.484375
1681203558.1033,,,,,,0,-0.030002,0,1681203558.1033,-3.875028,0,9.031542,23.291609,0,0.979414,0,0.201861,0,0,,,
1681203558.14239,0,1681203558.14239,-0.00175,0.00175,100,,,,,,,,,,,,,,,,,
1681203558.1424,,,,,,,,,,,,,,,,,,,,1.829508,1681203558.1424,119247.46875
1681203558.14241,,,,,,0,-0.030513,0,1681203558.14241,-3.864108,0,9.036749,23.222121,0,0.979536,0,0.201267,0,0,,,
1681203558.18207,0,1681203558.18207,-0.001764,0.001764,100,,,,,,,,,,,,,,,,,
1681203558.18208,,,,,,,,,,,,,,,,,,,,1.845363,1681203558.18208,119403.015625
1681203558.1821,,,,,,0,-0.030759,0,1681203558.1821,-3.853058,0,9.04173,23.151839,0,0.97966,0,0.200666,0,0,,,
1681203558.22301,0,1681203558.22301,-0.001832,0.001832,100,,,,,,,,,,,,,,,,,
1681203558.22302,,,,,,,,,,,,,,,,,,,,1.861174,1681203558.22302,119558.117188
1681203558.22303,,,,,,0,-0.031844,0,1681203558.22303,-3.841752,0,9.047648,23.079968,0,0.979785,0,0.200052,0,0,,,
1681203558.26314,0,1681203558.26314,-0.001865,0.001865,100,,,,,,,,,,,,,,,,,
1681203558.26315,,,,,,,,,,,,,,,,,,,,1.876937,1681203558.26315,119712.75
1681203558.26317,,,,,,0,-0.03246,0,1681203558.26317,-3.830127,0,9.053213,23.006109,0,0.979914,0,0.19942,0,0,,,
1681203558.30293,0,1681203558.30293,-0.001923,0.001923,100,,,,,,,,,,,,,,,,,
1681203558.30294,,,,,,,,,,,,,,,,,,,,1.892652,1681203558.30294,119866.914063
1681203558.30295,,,,,,0,-0.03344,0,1681203558.30295,-3.81821,0,9.05925,22.930439,0,0.980046,0,0.198773,0,0,,,
1681203558.34299,0,1681203558.34299,-0.001951,0.001951,100,,,,,,,,,,,,,,,,,
1681203558.343,,,,,,,,,,,,,,,,,,,,1.908317,1681203558.343,120020.585938
1681203558.34301,,,,,,0,-0.033979,0,1681203558.34301,-3.806013,0,9.064943,22.853031,0,0.98018,0,0.198111,0,0,,,
1681203558.38303,0,1681203558.38303,-0.001965,0.001965,100,,,,,,,,,,,,,,,,,
1681203558.38304,,,,,,,,,,,,,,,,,,,,1.923932,1681203558.38304,120173.773438
1681203558.38305,,,,,,0,-0.034239,0,1681203558.38305,-3.793677,0,9.070393,22.774787,0,0.980315,0,0.197442,0,0,,,
1681203558.4225,0,1681203558.4225,-0.002031,0.002031,100,,,,,,,,,,,,,,,,,
1681203558.42251,,,,,,,,,,,,,,,,,,,,1.939496,1681203558.42251,120326.453125
1681203558.42252,,,,,,0,-0.035405,0,1681203558.42252,-3.781065,0,9.076852,22.694838,0,0.980452,0,0.196758,0,0,,,
1681203558.46324,0,1681203558.46324,-0.002072,0.002072,100,,,,,,,,,,,,,,,,,
1681203558.46325,,,,,,,,,,,,,,,,,,,,1.955007,1681203558.46325,120478.617188
1681203558.46327,,,,,,0,-0.036068,0,1681203558.46327,-3.768108,0,9.082927,22.612751,0,0.980593,0,0.196055,0,0,,,
1681203558.50292,0,1681203558.50292,-0.002135,0.002135,100,,,,,,,,,,,,,,,,,
1681203558.50293,,,,,,,,,,,,,,,,,,,,1.970464,1681203558.50293,120630.257813
1681203558.50295,,,,,,0,-0.037133,0,1681203558.50295,-3.754833,0,9.089517,22.528702,0,0.980736,0,0.195336,0,0,,,
1681203558.5418,0,1681203558.5418,-0.002163,0.002163,100,,,,,,,,,,,,,,,,,
1681203558.54182,,,,,,,,,,,,,,,,,,,,1.985867,1681203558.54182,120781.351563
1681203558.54186,,,,,,0,-0.037718,0,1681203558.54186,-3.741252,0,9.095727,22.442767,0,0.980883,0,0.1946,0,0,,,
1681203558.58304,0,1681203558.58304,-0.002181,0.002181,100,,,,,,,,,,,,,,,,,
1681203558.58306,,,,,,,,,,,,,,,,,,,,2.001213,1681203558.58306,120931.898438
1681203558.58307,,,,,,0,-0.038,0,1681203558.58307,-3.727518,0,9.101672,22.355921,0,0.98103,0,0.193857,0,0,,,
1681203558.62231,0,1681203558.62231,-0.002253,0.002253,100,,,,,,,,,,,,,,,,,
1681203558.62232,,,,,,,,,,,,,,,,,,,,2.016503,1681203558.62232,121081.890625
1681203558.62235,,,,,,0,-0.039281,0,1681203558.62235,-3.71348,0,9.108721,22.267207,0,0.98118,0,0.193097,0,0,,,
1681203558.66299,0,1681203558.66299,-0.002298,0.002298,100,,,,,,,,,,,,,,,,,
1681203558.66301,,,,,,,,,,,,,,,,,,,,2.031734,1681203558.66301,121231.304688
1681203558.66302,,,,,,0,-0.040009,0,1681203558.66302,-3.699062,0,9.115345,22.176144,0,0.981333,0,0.192318,0,0,,,
1681203558.70311,0,1681203558.70311,-0.002368,0.002368,100,,,,,,,,,,,,,,,,,
1681203558.70312,,,,,,,,,,,,,,,,,,,,2.046905,1681203558.70312,121380.140625
1681203558.70314,,,,,,0,-0.041184,0,1681203558.70314,-3.684291,0,9.122535,22.08292,0,0.981489,0,0.191519,0,0,,,
1681203558.74294,0,1681203558.74294,-0.002402,0.002402,100,,,,,,,,,,,,,,,,,
1681203558.74295,,,,,,,,,,,,,,,,,,,,2.062015,1681203558.74295,121528.367188
1681203558.74296,,,,,,0,-0.041831,0,1681203558.74296,-3.66918,0,9.129301,21.987611,0,0.981648,0,0.190703,0,0,,,
1681203558.78302,0,1681203558.78302,-0.002419,0.002419,100,,,,,,,,,,,,,,,,,
1681203558.78303,,,,,,,,,,,,,,,,,,,,2.077062,1681203558.78303,121675.976563
1681203558.78304,,,,,,0,-0.042142,0,1681203558.78304,-3.653899,0,9.13577,21.891298,0,0.981808,0,0.189878,0,0,,,
1681203558.82246,0,1681203558.82246,-0.002499,0.002499,100,,,,,,,,,,,,,,,,,
1681203558.82247,,,,,,,,,,,,,,,,,,,,2.092046,1681203558.82247,121822.976563
1681203558.82249,,,,,,0,-0.043563,0,1681203558.82249,-3.638279,0,9.143461,21.792913,0,0.98197,0,0.189035,0,0,,,
1681203558.86349,0,1681203558.86349,-0.002549,0.002549,100,,,,,,,,,,,,,,,,,
1681203558.8635,,,,,,,,,,,,,,,,,,,,2.106966,1681203558.8635,121969.328125
1681203558.86351,,,,,,0,-0.044372,0,1681203558.86351,-3.622234,0,9.150674,21.691921,0,0.982137,0,0.188169,0,0,,,
1681203558.90313,0,1681203558.90313,-0.002627,0.002627,100,,,,,,,,,,,,,,,,,
1681203558.90314,,,,,,,,,,,,,,,,,,,,2.121818,1681203558.90314,122115.039063
1681203558.90316,,,,,,0,-0.045679,0,1681203558.90316,-3.605796,0,9.158511,21.588526,0,0.982306,0,0.187283,0,0,,,
1681203558.9432,0,1681203558.9432,-0.002665,0.002665,100,,,,,,,,,,,,,,,,,
1681203558.94321,,,,,,,,,,,,,,,,,,,,2.136602,1681203558.94321,122260.070313
1681203558.94323,,,,,,0,-0.046397,0,1681203558.94323,-3.588977,0,9.165872,21.482814,0,0.982478,0,0.186377,0,0,,,
1681203558.98319,0,1681203558.98319,-0.002683,0.002683,100,,,,,,,,,,,,,,,,,
1681203558.9832,,,,,,,,,,,,,,,,,,,,2.151317,1681203558.9832,122404.421875
1681203558.98322,,,,,,0,-0.046744,0,1681203558.98322,-3.571968,0,9.172896,21.375985,0,0.982652,0,0.185461,0,0,,,
1681203559.02236,0,1681203559.02236,-0.002772,0.002772,100,,,,,,,,,,,,,,,,,
1681203559.02237,,,,,,,,,,,,,,,,,,,,2.165962,1681203559.02237,122548.085938
1681203559.02239,,,,,,0,-0.048326,0,1681203559.02239,-3.554579,0,9.181277,21.266849,0,0.982828,0,0.184525,0,0,,,
1681203559.06487,0,1681203559.06487,-0.002828,0.002828,100,,,,,,,,,,,,,,,,,
1681203559.06488,,,,,,,,,,,,,,,,,,,,2.180534,1681203559.06488,122691.03125
1681203559.0649,,,,,,0,-0.049227,0,1681203559.0649,-3.536713,0,9.189116,21.15481,0,0.983008,0,0.183564,0,0,,,
1681203559.102,0,1681203559.102,-0.002907,0.002907,100,,,,,,,,,,,,,,,,,
1681203559.10201,,,,,,,,,,,,,,,,,,,,2.195032,1681203559.10201,122833.257813
1681203559.10203,,,,,,0,-0.050681,0,1681203559.10203,-3.518408,0,9.197643,21.040097,0,0.983191,0,0.18258,0,0,,,
1681203559.14328,0,1681203559.14328,-0.002957,0.002957,100,,,,,,,,,,,,,,,,,
1681203559.14329,,,,,,,,,,,,,,,,,,,,2.209453,1681203559.14329,122974.734375
1681203559.14331,,,,,,0,-0.051481,0,1681203559.14331,-3.499676,0,9.205632,20.922804,0,0.983377,0,0.181573,0,0,,,
1681203559.18313,0,1681203559.18313,-0.002977,0.002977,100,,,,,,,,,,,,,,,,,
1681203559.18314,,,,,,,,,,,,,,,,,,,,2.223798,1681203559.18314,123115.453125
1681203559.18315,,,,,,0,-0.051867,0,1681203559.18315,-3.480731,0,9.213241,20.804268,0,0.983565,0,0.180556,0,0,,,
1681203559.223,0,1681203559.223,-0.003085,0.003085,100,,,,,,,,,,,,,,,,,
1681203559.22301,,,,,,,,,,,,,,,,,,,,2.238064,1681203559.22301,123255.40625
1681203559.22302,,,,,,0,-0.053625,0,1681203559.22302,-3.46136,0,9.222347,20.683168,0,0.983755,0,0.179516,0,0,,,
1681203559.2631,0,1681203559.2631,-0.003138,0.003138,100,,,,,,,,,,,,,,,,,
1681203559.26311,,,,,,,,,,,,,,,,,,,,2.252249,1681203559.26311,123394.5625
1681203559.26314,,,,,,0,-0.054626,0,1681203559.26314,-3.441458,0,9.230843,20.558842,0,0.983949,0,0.178449,0,0,,,
1681203559.30195,0,1681203559.30195,-0.003226,0.003226,100,,,,,,,,,,,,,,,,,
1681203559.30197,,,,,,,,,,,,,,,,,,,,2.266352,1681203559.30197,123532.914063
1681203559.30198,,,,,,0,-0.056238,0,1681203559.30198,-3.421063,0,9.240089,20.43155,0,0.984147,0,0.177356,0,0,,,
1681203559.34219,0,1681203559.34219,-0.003277,0.003277,100,,,,,,,,,,,,,,,,,
1681203559.34221,,,,,,,,,,,,,,,,,,,,2.28037,1681203559.34221,123670.429688
1681203559.34222,,,,,,0,-0.057125,0,1681203559.34222,-3.400194,0,9.24873,20.301398,0,0.984348,0,0.176238,0,0,,,
1681203559.3831,0,1681203559.3831,-0.003303,0.003303,100,,,,,,,,,,,,,,,,,
1681203559.38311,,,,,,,,,,,,,,,,,,,,2.294302,1681203559.38311,123807.101563
1681203559.38313,,,,,,0,-0.057552,0,1681203559.38313,-3.379085,0,9.256941,20.169869,0,0.984549,0,0.175108,0,0,,,
1681203559.42328,0,1681203559.42328,-0.003423,0.003423,100,,,,,,,,,,,,,,,,,
1681203559.42329,,,,,,,,,,,,,,,,,,,,2.308146,1681203559.42329,123942.914063
1681203559.42331,,,,,,0,-0.059492,0,1681203559.42331,-3.357504,0,9.266793,20.035508,0,0.984754,0,0.173953,0,0,,,
1681203559.46247,0,1681203559.46247,-0.003476,0.003476,100,,,,,,,,,,,,,,,,,
1681203559.46249,,,,,,,,,,,,,,,,,,,,2.321901,1681203559.46249,124077.851563
1681203559.46251,,,,,,0,-0.060596,0,1681203559.46251,-3.335332,0,9.275959,19.897589,0,0.984963,0,0.172768,0,0,,,
1681203559.50254,0,1681203559.50254,-0.003577,0.003577,100,,,,,,,,,,,,,,,,,
1681203559.50255,,,,,,,,,,,,,,,,,,,,2.335564,1681203559.50255,124211.882813
1681203559.50257,,,,,,0,-0.062368,0,1681203559.50257,-3.312615,0,9.285933,19.756405,0,0.985175,0,0.171554,0,0,,,
1681203559.54249,0,1681203559.54249,-0.003633,0.003633,100,,,,,,,,,,,,,,,,,
1681203559.5425,,,,,,,,,,,,,,,,,,,,2.349132,1681203559.5425,124344.984375
1681203559.54252,,,,,,0,-0.063342,0,1681203559.54252,-3.289372,0,9.295229,19.61208,0,0.98539,0,0.170313,0,0,,,
1681203559.58319,0,1681203559.58319,-0.003662,0.003662,100,,,,,,,,,,,,,,,,,
1681203559.5832,,,,,,,,,,,,,,,,,,,,2.362604,1681203559.5832,124477.148438
1681203559.58321,,,,,,0,-0.063811,0,1681203559.58321,-3.265864,0,9.304044,19.466242,0,0.985606,0,0.169059,0,0,,,
1681203559.62298,0,1681203559.62298,-0.003793,0.003793,100,,,,,,,,,,,,,,,,,
1681203559.62299,,,,,,,,,,,,,,,,,,,,2.375979,1681203559.62299,124608.351563
1681203559.623,,,,,,0,-0.065926,0,1681203559.623,-3.241836,0,9.314631,19.317314,0,0.985825,0,0.167778,0,0,,,
1681203559.66301,0,1681203559.66301,-0.003856,0.003856,100,,,,,,,,,,,,,,,,,
1681203559.66303,,,,,,,,,,,,,,,,,,,,2.389254,1681203559.66303,124738.578125
1681203559.66305,,,,,,0,-0.067129,0,1681203559.66305,-3.217159,0,9.324455,19.164507,0,0.986048,0,0.166463,0,0,,,
1681203559.70239,0,1681203559.70239,-0.00396,0.00396,100,,,,,,,,,,,,,,,,,
1681203559.7024,,,,,,,,,,,,,,,,,,,,2.402426,1681203559.7024,124867.804688
1681203559.70242,,,,,,0,-0.069048,0,1681203559.70242,-3.191887,0,9.335131,19.008158,0,0.986274,0,0.165118,0,0,,,
1681203559.74323,0,1681203559.74323,-0.004026,0.004026,100,,,,,,,,,,,,,,,,,
1681203559.74324,,,,,,,,,,,,,,,,,,,,2.415494,1681203559.74324,124996
1681203559.74328,,,,,,0,-0.070103,0,1681203559.74328,-3.166041,0,9.345056,18.848407,0,0.986503,0,0.163743,0,0,,,
1681203559.78321,0,1681203559.78321,-0.004052,0.004052,100,,,,,,,,,,,,,,,,,
1681203559.78323,,,,,,,,,,,,,,,,,,,,2.428455,1681203559.78323,125123.140625
1681203559.78324,,,,,,0,-0.070611,0,1681203559.78324,-3.139904,0,9.354449,18.687018,0,0.986733,0,0.162353,0,0,,,
1681203559.82311,0,1681203559.82311,-0.004192,0.004192,100,,,,,,,,,,,,,,,,,
1681203559.82312,,,,,,,,,,,,,,,,,,,,2.441308,1681203559.82312,125249.226563
1681203559.82314,,,,,,0,-0.072875,0,1681203559.82314,-3.113205,0,9.365715,18.522316,0,0.986965,0,0.160935,0,0,,,
1681203559.86317,0,1681203559.86317,-0.00426,0.00426,100,,,,,,,,,,,,,,,,,
1681203559.86318,,,,,,,,,,,,,,,,,,,,2.454049,1681203559.86318,125374.21875
1681203559.8632,,,,,,0,-0.074162,0,1681203559.8632,-3.085807,0,9.376145,18.353464,0,0.987201,0,0.15948,0,0,,,
1681203559.90247,0,1681203559.90247,-0.00437,0.00437,100,,,,,,,,,,,,,,,,,
1681203559.90248,,,,,,,,,,,,,,,,,,,,2.466677,1681203559.90248,125498.101563
1681203559.90249,,,,,,0,-0.076197,0,1681203559.90249,-3.05777,0,9.387447,18.180845,0,0.98744,0,0.157993,0,0,,,
1681203559.94314,0,1681203559.94314,-0.00444,0.00444,100,,,,,,,,,,,,,,,,,
1681203559.94315,,,,,,,,,,,,,,,,,,,,2.479188,1681203559.94315,125620.835938
1681203559.94316,,,,,,0,-0.077315,0,1681203559.94316,-3.029118,0,9.397933,18.004621,0,0.987682,0,0.156474,0,0,,,
1681203559.9833,0,1681203559.9833,-0.004468,0.004468,100,,,,,,,,,,,,,,,,,
1681203559.98331,,,,,,,,,,,,,,,,,,,,2.491582,1681203559.98331,125742.414063
1681203559.98332,,,,,,0,-0.077853,0,1681203559.98332,-3.000156,0,9.407839,17.826661,0,0.987924,0,0.15494,0,0,,,
1681203560.023,0,1681203560.023,-0.004614,0.004614,100,,,,,,,,,,,,,,,,,
1681203560.02302,,,,,,,,,,,,,,,,,,,,2.503855,1681203560.02302,125862.820313
1681203560.02304,,,,,,0,-0.080213,0,1681203560.02304,-2.9706,0,9.419667,17.645241,0,0.988168,0,0.153376,0,0,,,
1681203560.06318,0,1681203560.06318,-0.004684,0.004684,100,,,,,,,,,,,,,,,,,
1681203560.0632,,,,,,,,,,,,,,,,,,,,2.516006,1681203560.0632,125982.015625
1681203560.06322,,,,,,0,-0.081554,0,1681203560.06322,-2.940309,0,9.430598,17.459496,0,0.988415,0,0.151774,0,0,,,
1681203560.10324,0,1681203560.10324,-0.004809,0.004809,100,,,,,,,,,,,,,,,,,
1681203560.10326,,,,,,,,,,,,,,,,,,,,2.52803,1681203560.10326,126099.976563
1681203560.10327,,,,,,0,-0.083646,0,1681203560.10327,-2.909351,0,9.442384,17.26986,0,0.988665,0,0.150138,0,0,,,
1681203560.14208,0,1681203560.14208,-0.004864,0.004864,100,,,,,,,,,,,,,,,,,
1681203560.14209,,,,,,,,,,,,,,,,,,,,2.539927,1681203560.14209,126216.679688
1681203560.1421,,,,,,0,-0.084795,0,1681203560.1421,-2.877756,0,9.453305,17.07652,0,0.988917,0,0.14847,0,0,,,
1681203560.1829,0,1681203560.1829,-0.004898,0.004898,100,,,,,,,,,,,,,,,,,
1681203560.18291,,,,,,,,,,,,,,,,,,,,2.551693,1681203560.18291,126332.109375
1681203560.18292,,,,,,0,-0.085349,0,1681203560.18292,-2.845836,0,9.463608,16.881395,0,0.989168,0,0.146786,0,0,,,
1681203560.22311,0,1681203560.22311,-0.005044,0.005044,100,,,,,,,,,,,,,,,,,
1681203560.22312,,,,,,,,,,,,,,,,,,,,2.563327,1681203560.22312,126446.234375
1681203560.22314,,,,,,0,-0.087716,0,1681203560.22314,-2.813312,0,9.4758,16.682784,0,0.989421,0,0.145071,0,0,,,
1681203560.2631,0,1681203560.2631,-0.005115,0.005115,100,,,,,,,,,,,,,,,,,
1681203560.26311,,,,,,,,,,,,,,,,,,,,2.574826,1681203560.26311,126559.039063
1681203560.26312,,,,,,0,-0.089062,0,1681203560.26312,-2.780043,0,9.487061,16.479835,0,0.989677,0,0.143318,0,0,,,
1681203560.30239,0,1681203560.30239,-0.005227,0.005227,100,,,,,,,,,,,,,,,,,
1681203560.3024,,,,,,,,,,,,,,,,,,,,2.586187,1681203560.3024,126670.492188
1681203560.30241,,,,,,0,-0.091123,0,1681203560.30241,-2.746106,0,9.499108,16.27303,0,0.989934,0,0.141532,0,0,,,
1681203560.34231,0,1681203560.34231,-0.005291,0.005291,100,,,,,,,,,,,,,,,,,
1681203560.34232,,,,,,,,,,,,,,,,,,,,2.597407,1681203560.34232,126780.5625
1681203560.34235,,,,,,0,-0.092253,0,1681203560.34235,-2.711534,0,9.510269,16.062581,0,0.990192,0,0.139714,0,0,,,
1681203560.38254,0,1681203560.38254,-0.005323,0.005323,100,,,,,,,,,,,,,,,,,
1681203560.38256,,,,,,,,,,,,,,,,,,,,2.608485,1681203560.38256,126889.234375
1681203560.38258,,,,,,0,-0.092798,0,1681203560.38258,-2.676636,0,9.520796,15.850375,0,0.990449,0,0.13788,0,0,,,
1681203560.42314,0,1681203560.42314,-0.005464,0.005464,100,,,,,,,,,,,,,,,,,
1681203560.42315,,,,,,,,,,,,,,,,,,,,2.619419,1681203560.42315,126996.5
1681203560.42317,,,,,,0,-0.09505,0,1681203560.42317,-2.641153,0,9.533065,15.634838,0,0.990707,0,0.136017,0,0,,,
1681203560.46312,0,1681203560.46312,-0.005531,0.005531,100,,,,,,,,,,,,,,,,,
1681203560.46313,,,,,,,,,,,,,,,,,,,,2.630205,1681203560.46313,127102.3125
1681203560.46314,,,,,,0,-0.096329,0,1681203560.46314,-2.604953,0,9.544408,15.415177,0,0.990965,0,0.134117,0,0,,,
1681203560.50302,0,1681203560.50302,-0.005645,0.005645,100,,,,,,,,,,,,,,,,,
1681203560.50303,,,,,,,,,,,,,,,,,,,,2.640841,1681203560.50303,127206.65625
1681203560.50305,,,,,,0,-0.098235,0,1681203560.50305,-2.56812,0,9.556406,15.191917,0,0.991225,0,0.132186,0,0,,,
1681203560.54238,0,1681203560.54238,-0.005694,0.005694,100,,,,,,,,,,,,,,,,,
1681203560.54239,,,,,,,,,,,,,,,,,,,,2.651325,1681203560.54239,127309.5
1681203560.54241,,,,,,0,-0.09928,0,1681203560.54241,-2.530691,0,9.567541,14.965289,0,0.991484,0,0.130226,0,0,,,
1681203560.58308,0,1681203560.58308,-0.005726,0.005726,100,,,,,,,,,,,,,,,,,
1681203560.58309,,,,,,,,,,,,,,,,,,,,2.661655,1681203560.58309,127410.835938
1681203560.58311,,,,,,0,-0.099783,0,1681203560.58311,-2.492955,0,9.578054,14.73704,0,0.991742,0,0.128251,0,0,,,
1681203560.6233,0,1681203560.6233,-0.005847,0.005847,100,,,,,,,,,,,,,,,,,
1681203560.62331,,,,,,,,,,,,,,,,,,,,2.671829,1681203560.62331,127510.640625
1681203560.62332,,,,,,0,-0.101759,0,1681203560.62332,-2.454691,0,9.590026,14.505842,0,0.991999,0,0.12625,0,0,,,
1681203560.66318,0,1681203560.66318,-0.005906,0.005906,100,,,,,,,,,,,,,,,,,
1681203560.6632,,,,,,,,,,,,,,,,,,,,2.681844,1681203560.6632,127608.890625
1681203560.66321,,,,,,0,-0.10288,0,1681203560.66321,-2.415788,0,9.601135,14.271029,0,0.992255,0,0.124217,0,0,,,
1681203560.70338,0,1681203560.70338,-0.006001,0.006001,100,,,,,,,,,,,,,,,,,
1681203560.70339,,,,,,,,,,,,,,,,,,,,2.691699,1681203560.70339,127705.5625
1681203560.7034,,,,,,0,-0.104484,0,1681203560.7034,-2.376335,0,9.612697,14.033145,0,0.992511,0,0.122156,0,0,,,
1681203560.74198,0,1681203560.74198,-0.006043,0.006043,100,,,,,,,,,,,,,,,,,
1681203560.74199,,,,,,,,,,,,,,,,,,,,2.70139,1681203560.74199,127800.640625
1681203560.74201,,,,,,0,-0.10536,0,1681203560.74201,-2.336372,0,9.623478,13.792438,0,0.992765,0,0.120071,0,0,,,
1681203560.7823,0,1681203560.7823,-0.006067,0.006067,100,,,,,,,,,,,,,,,,,
1681203560.78231,,,,,,,,,,,,,,,,,,,,2.710917,1681203560.78231,127894.09375
1681203560.78232,,,,,,0,-0.105782,0,1681203560.78232,-2.296141,0,9.633688,13.55037,0,0.993017,0,0.117974,0,0,,,
1681203560.823,0,1681203560.823,-0.006163,0.006163,100,,,,,,,,,,,,,,,,,
1681203560.82301,,,,,,,,,,,,,,,,,,,,2.720278,1681203560.82301,127985.929688
1681203560.82302,,,,,,0,-0.107303,0,1681203560.82302,-2.255486,0,9.644926,13.305999,0,0.993266,0,0.115856,0,0,,,
1681203560.8624,0,1681203560.8624,-0.006204,0.006204,100,,,,,,,,,,,,,,,,,
1681203560.86242,,,,,,,,,,,,,,,,,,,,2.729471,1681203560.86242,128076.109375
1681203560.86243,,,,,,0,-0.108164,0,1681203560.86243,-2.214327,0,9.655434,13.058851,0,0.993514,0,0.113713,0,0,,,
1681203560.90212,0,1681203560.90212,-0.006269,0.006269,100,,,,,,,,,,,,,,,,,
1681203560.90213,,,,,,,,,,,,,,,,,,,,2.738494,1681203560.90213,128164.625
1681203560.90214,,,,,,0,-0.109305,0,1681203560.90214,-2.172753,0,9.66613,12.809458,0,0.993759,0,0.111551,0,0,,,
1681203560.94338,0,1681203560.94338,-0.006308,0.006308,100,,,,,,,,,,,,,,,,,
1681203560.94339,,,,,,,,,,,,,,,,,,,,2.747345,1681203560.94339,128251.453125
1681203560.9434,,,,,,0,-0.109925,0,1681203560.9434,-2.130804,0,9.676195,12.558067,0,0.994001,0,0.109371,0,0,,,
1681203560.98305,0,1681203560.98305,-0.006324,0.006324,100,,,,,,,,,,,,,,,,,
1681203560.98306,,,,,,,,,,,,,,,,,,,,2.756024,1681203560.98306,128336.59375
1681203560.98307,,,,,,0,-0.110223,0,1681203560.98307,-2.088652,0,9.685787,12.305712,0,0.994239,0,0.107181,0,0,,,
1681203561.02327,0,1681203561.02327,-0.006378,0.006378,100,,,,,,,,,,,,,,,,,
1681203561.02328,,,,,,,,,,,,,,,,,,,,2.764529,1681203561.02328,128420.03125
1681203561.0233,,,,,,0,-0.111116,0,1681203561.0233,-2.046227,0,9.695842,12.051959,0,0.994474,0,0.104979,0,0,,,
1681203561.06307,0,1681203561.06307,-0.006404,0.006404,100,,,,,,,,,,,,,,,,,
1681203561.06308,,,,,,,,,,,,,,,,,,,,2.772859,1681203561.06308,128501.75
1681203561.06309,,,,,,0,-0.111619,0,1681203561.06309,-2.003489,0,9.705373,11.796584,0,0.994706,0,0.102763,0,0,,,
1681203561.10229,0,1681203561.10229,-0.006433,0.006433,100,,,,,,,,,,,,,,,,,
1681203561.1023,,,,,,,,,,,,,,,,,,,,2.781013,1681203561.1023,128581.742188
1681203561.10232,,,,,,0,-0.112153,0,1681203561.10232,-1.96052,0,9.714785,11.540063,0,0.994933,0,0.100536,0,0,,,
1681203561.14306,0,1681203561.14306,-0.00645,0.00645,100,,,,,,,,,,,,,,,,,
1681203561.14308,,,,,,,,,,,,,,,,,,,,2.788991,1681203561.14308,128660
1681203561.14309,,,,,,0,-0.112438,0,1681203561.14309,-1.917357,0,9.723784,11.282621,0,0.995157,0,0.0983,0,0,,,
1681203561.18299,0,1681203561.18299,-0.006458,0.006458,100,,,,,,,,,,,,,,,,,
1681203561.183,,,,,,,,,,,,,,,,,,,,2.79679,1681203561.183,128736.515625
1681203561.18302,,,,,,0,-0.112576,0,1681203561.18302,-1.874081,0,9.732455,11.024735,0,0.995375,0,0.096061,0,0,,,
1681203561.2222,0,1681203561.2222,-0.006464,0.006464,100,,,,,,,,,,,,,,,,,
1681203561.22221,,,,,,,,,,,,,,,,,,,,2.804412,1681203561.22221,128811.28125
1681203561.22223,,,,,,0,-0.112705,0,1681203561.22223,-1.830718,0,9.740932,10.766557,0,0.995589,0,0.093818,0,0,,,
1681203561.26343,0,1681203561.26343,-0.006469,0.006469,100,,,,,,,,,,,,,,,,,
1681203561.26344,,,,,,,,,,,,,,,,,,,,2.811856,1681203561.26344,128884.304688
1681203561.26345,,,,,,0,-0.112772,0,1681203561.26345,-1.787281,0,9.749159,10.508161,0,0.995798,0,0.091573,0,0,,,
1681203561.30299,0,1681203561.30299,-0.006458,0.006458,100,,,,,,,,,,,,,,,,,
1681203561.303,,,,,,,,,,,,,,,,,,,,2.819121,1681203561.303,128955.570313
1681203561.30301,,,,,,0,-0.112603,0,1681203561.30301,-1.743832,0,9.756946,10.249911,0,0.996002,0,0.089328,0,0,,,
1681203561.34259,0,1681203561.34259,-0.006453,0.006453,100,,,,,,,,,,,,,,,,,
1681203561.34261,,,,,,,,,,,,,,,,,,,,2.826207,1681203561.34261,129025.09375
1681203561.34263,,,,,,0,-0.112502,0,1681203561.34263,-1.700403,0,9.764596,9.991988,0,0.996201,0,0.087086,0,0,,,
1681203561.38304,0,1681203561.38304,-0.00645,0.00645,100,,,,,,,,,,,,,,,,,
1681203561.38305,,,,,,,,,,,,,,,,,,,,2.833115,1681203561.38305,129092.859375
1681203561.38306,,,,,,0,-0.112453,0,1681203561.38306,-1.656965,0,9.772099,9.734222,0,0.996394,0,0.084845,0,0,,,
1681203561.42245,0,1681203561.42245,-0.00641,0.00641,100,,,,,,,,,,,,,,,,,
1681203561.42246,,,,,,,,,,,,,,,,,,,,2.839845,1681203561.42246,129158.875
1681203561.42247,,,,,,0,-0.111753,0,1681203561.42247,-1.61365,0,9.778725,9.477379,0,0.996582,0,0.082611,0,0,,,
1681203561.46307,0,1681203561.46307,-0.006385,0.006385,100,,,,,,,,,,,,,,,,,
1681203561.46309,,,,,,,,,,,,,,,,,,,,2.846397,1681203561.46309,129223.15625
1681203561.4631,,,,,,0,-0.111349,0,1681203561.4631,-1.570522,0,9.78542,9.221835,0,0.996764,0,0.080389,0,0,,,
1681203561.50299,0,1681203561.50299,-0.00633,0.00633,100,,,,,,,,,,,,,,,,,
1681203561.503,,,,,,,,,,,,,,,,,,,,2.852772,1681203561.503,129285.695313
1681203561.50301,,,,,,0,-0.110448,0,1681203561.50301,-1.527618,0,9.791381,8.967802,0,0.996939,0,0.078179,0,0,,,
1681203561.54297,0,1681203561.54297,-0.006304,0.006304,100,,,,,,,,,,,,,,,,,
1681203561.54299,,,,,,,,,,,,,,,,,,,,2.858972,1681203561.54299,129346.515625
1681203561.54301,,,,,,0,-0.109945,0,1681203561.54301,-1.484958,0,9.79751,8.715391,0,0.997109,0,0.075983,0,0,,,
1681203561.58315,0,1681203561.58315,-0.006291,0.006291,100,,,,,,,,,,,,,,,,,
1681203561.58316,,,,,,,,,,,,,,,,,,,,2.864996,1681203561.58316,129405.609375
1681203561.58317,,,,,,0,-0.109703,0,1681203561.58317,-1.442402,0,9.803695,8.463761,0,0.997274,0,0.073793,0,0,,,
1681203561.62308,0,1681203561.62308,-0.006197,0.006197,100,,,,,,,,,,,,,,,,,
1681203561.62309,,,,,,,,,,,,,,,,,,,,2.870846,1681203561.62309,129463
1681203561.6231,,,,,,0,-0.108195,0,1681203561.6231,-1.400175,0,9.808366,8.214246,0,0.997432,0,0.071621,0,0,,,
1681203561.66305,0,1681203561.66305,-0.006152,0.006152,100,,,,,,,,,,,,,,,,,
1681203561.66307,,,,,,,,,,,,,,,,,,,,2.876523,1681203561.66307,129518.695313
1681203561.66309,,,,,,0,-0.107333,0,1681203561.66309,-1.358393,0,9.813438,7.96751,0,0.997584,0,0.069474,0,0,,,
1681203561.70326,0,1681203561.70326,-0.006057,0.006057,100,,,,,,,,,,,,,,,,,
1681203561.70327,,,,,,,,,,,,,,,,,,,,2.88203,1681203561.70327,129572.710938
1681203561.70329,,,,,,0,-0.105749,0,1681203561.70329,-1.31706,0,9.817539,7.723574,0,0.997729,0,0.06735,0,0,,,
1681203561.743,0,1681203561.743,-0.006011,0.006011,100,,,,,,,,,,,,,,,,,
1681203561.74301,,,,,,,,,,,,,,,,,,,,2.887367,1681203561.74301,129625.078125
1681203561.74303,,,,,,0,-0.104871,0,1681203561.74303,-1.276183,0,9.822113,7.482466,0,0.997869,0,0.06525,0,0,,,
1681203561.78306,0,1681203561.78306,-0.005989,0.005989,100,,,,,,,,,,,,,,,,,
1681203561.78307,,,,,,,,,,,,,,,,,,,,2.892538,1681203561.78307,129675.796875
1681203561.78309,,,,,,0,-0.104449,0,1681203561.78309,-1.235515,0,9.826942,7.242721,0,0.998003,0,0.063163,0,0,,,
1681203561.82188,0,1681203561.82188,-0.005864,0.005864,100,,,,,,,,,,,,,,,,,
1681203561.82189,,,,,,,,,,,,,,,,,,,,2.897541,1681203561.82189,129724.882813
1681203561.8219,,,,,,0,-0.102238,0,1681203561.8219,-1.195362,0,9.829735,7.006141,0,0.998132,0,0.061102,0,0,,,
1681203561.86346,0,1681203561.86346,-0.005786,0.005786,100,,,,,,,,,,,,,,,,,
1681203561.86347,,,,,,,,,,,,,,,,,,,,2.902381,1681203561.86347,129772.359375
1681203561.86349,,,,,,0,-0.100977,0,1681203561.86349,-1.155879,0,9.833237,6.773626,0,0.998253,0,0.059077,0,0,,,
1681203561.90298,0,1681203561.90298,-0.005657,0.005657,100,,,,,,,,,,,,,,,,,
1681203561.90301,,,,,,,,,,,,,,,,,,,,2.90706,1681203561.90301,129818.257813
1681203561.90303,,,,,,0,-0.098825,0,1681203561.90303,-1.117038,0,9.835606,6.544999,0,0.998369,0,0.057085,0,0,,,
1681203561.94303,0,1681203561.94303,-0.005595,0.005595,100,,,,,,,,,,,,,,,,,
1681203561.94304,,,,,,,,,,,,,,,,,,,,2.911581,1681203561.94304,129862.609375
1681203561.94306,,,,,,0,-0.097638,0,1681203561.94306,-1.07883,0,9.838719,6.3202,0,0.998479,0,0.055126,0,0,,,
1681203561.98308,0,1681203561.98308,-0.005565,0.005565,100,,,,,,,,,,,,,,,,,
1681203561.9831,,,,,,,,,,,,,,,,,,,,2.915945,1681203561.9831,129905.421875
1681203561.98311,,,,,,0,-0.097067,0,1681203561.98311,-1.040919,0,9.842268,6.097244,0,0.998585,0,0.053183,0,0,,,
1681203562.02218,0,1681203562.02218,-0.00541,0.00541,100,,,,,,,,,,,,,,,,,
1681203562.02219,,,,,,,,,,,,,,,,,,,,2.920154,1681203562.02219,129946.710938
1681203562.02221,,,,,,0,-0.094318,0,1681203562.02221,-1.003669,0,9.843408,5.878267,0,0.998685,0,0.051275,0,0,,,
1681203562.06314,0,1681203562.06314,-0.005313,0.005313,100,,,,,,,,,,,,,,,,,
1681203562.06315,,,,,,,,,,,,,,,,,,,,2.924212,1681203562.06315,129986.523438
1681203562.06317,,,,,,0,-0.092753,0,1681203562.06317,-0.967264,0,9.845512,5.664337,0,0.998779,0,0.049411,0,0,,,
1681203562.10233,0,1681203562.10233,-0.005173,0.005173,100,,,,,,,,,,,,,,,,,
1681203562.10234,,,,,,,,,,,,,,,,,,,,2.928122,1681203562.10234,130024.875
1681203562.10236,,,,,,0,-0.090193,0,1681203562.10236,-0.931643,0,9.846403,5.455095,0,0.998867,0,0.047587,0,0,,,
1681203562.14295,0,1681203562.14295,-0.005086,0.005086,100,,,,,,,,,,,,,,,,,
1681203562.14296,,,,,,,,,,,,,,,,,,,,2.931886,1681203562.14296,130061.804688
1681203562.14298,,,,,,0,-0.088784,0,1681203562.14298,-0.896783,0,9.84825,5.250396,0,0.998951,0,0.045802,0,0,,,
1681203562.18318,0,1681203562.18318,-0.00505,0.00505,100,,,,,,,,,,,,,,,,,
1681203562.18319,,,,,,,,,,,,,,,,,,,,2.935509,1681203562.18319,130097.34375
1681203562.18321,,,,,,0,-0.088105,0,1681203562.18321,-0.862285,0,9.850676,5.047886,0,0.99903,0,0.044037,0,0,,,
1681203562.2222,0,1681203562.2222,-0.004876,0.004876,100,,,,,,,,,,,,,,,,,
1681203562.22221,,,,,,,,,,,,,,,,,,,,2.938991,1681203562.22221,130131.5
